,street_name,full_address,sale_date,sale_price,price_num,sq_feet,price_sf,url,lat,long
0,4079 FORT SUMTER LNDG NW,"4079 FORT SUMTER LNDG NW Cobb County, GA",2018-01-02,"$219,900.00",219900,1850,118.86486486486488,"https://www.google.com/maps/search/4079%20FORT%20SUMTER%20LNDG%20NW%20Cobb%20County,%20GA",34.0550975,-84.6548336
1,2852 BETULA DR,"2852 BETULA DR Cobb County, GA",2018-01-02,"$91,971.00",91971,1845,49.84878048780488,"https://www.google.com/maps/search/2852%20BETULA%20DR%20Cobb%20County,%20GA",33.84233,-84.63706
2,5006 CRIDER CREEK DR SW,"5006 CRIDER CREEK DR SW Cobb County, GA",2018-01-02,"$255,900.00",255900,2845,89.94727592267135,"https://www.google.com/maps/search/5006%20CRIDER%20CREEK%20DR%20SW%20Cobb%20County,%20GA",33.835668,-84.70191
3,6150 DUE WEST RD,"6150 DUE WEST RD Cobb County, GA",2018-01-02,"$100,000.00",100000,1512,66.13756613756614,"https://www.google.com/maps/search/6150%20DUE%20WEST%20RD%20Cobb%20County,%20GA",33.9776808,-84.7307604
4,1651 MASSACHUSETTS AVE UNIT 21,"1651 MASSACHUSETTS AVE UNIT 21 Cobb County, GA",2018-01-02,"$76,500.00",76500,1440,53.125,"https://www.google.com/maps/search/1651%20MASSACHUSETTS%20AVE%20UNIT%2021%20Cobb%20County,%20GA",33.9127335,-84.5699911
5,35 SHERATON WAY,"35 SHERATON WAY Cobb County, GA",2018-01-02,"$85,000.00",85000,1422,59.774964838255976,"https://www.google.com/maps/search/35%20SHERATON%20WAY%20Cobb%20County,%20GA",33.8056855,-84.5545193
6,1190 HILL ST SE,"1190 HILL ST SE Cobb County, GA",2018-01-02,"$349,900.00",349900,2264,154.5494699646643,"https://www.google.com/maps/search/1190%20HILL%20ST%20SE%20Cobb%20County,%20GA",33.8889355,-84.5186342
7,827 MEADOW PL,"827 MEADOW PL Cobb County, GA",2018-01-02,"$85,000.00",85000,1008,84.32539682539682,"https://www.google.com/maps/search/827%20MEADOW%20PL%20Cobb%20County,%20GA",33.9656062,-84.5280393
8,939 CHURCH ST,"939 CHURCH ST Cobb County, GA",2018-01-02,"$339,000.00",339000,1470,230.6122448979592,"https://www.google.com/maps/search/939%20CHURCH%20ST%20Cobb%20County,%20GA",33.8815407,-84.5261305
9,4953 TURTLE TRCE,"4953 TURTLE TRCE Cobb County, GA",2018-01-02,"$159,000.00",159000,1388,114.55331412103746,"https://www.google.com/maps/search/4953%20TURTLE%20TRCE%20Cobb%20County,%20GA",34.0692541,-84.484134
10,630 MIDDLEGATE CT,"630 MIDDLEGATE CT Cobb County, GA",2018-01-02,"$180,000.00",180000,1569,114.72275334608032,"https://www.google.com/maps/search/630%20MIDDLEGATE%20CT%20Cobb%20County,%20GA",34.0452663,-84.5318283
11,3362 THORNBRIDGE DR,"3362 THORNBRIDGE DR Cobb County, GA",2018-01-02,"$147,000.00",147000,1596,92.10526315789474,"https://www.google.com/maps/search/3362%20THORNBRIDGE%20DR%20Cobb%20County,%20GA",33.8740829,-84.7067605
12,714 TOM READ DR,"714 TOM READ DR Cobb County, GA",2018-01-02,"$73,000.00",73000,880,82.95454545454545,"https://www.google.com/maps/search/714%20TOM%20READ%20DR%20Cobb%20County,%20GA",33.9678573,-84.531127
13,4567 WILKERSON PL,"4567 WILKERSON PL Cobb County, GA",2018-01-02,"$398,000.00",398000,2719,146.3773446119897,"https://www.google.com/maps/search/4567%20WILKERSON%20PL%20Cobb%20County,%20GA",33.8423746,-84.5280554
14,1376 PEMBRIDGE TRCE,"1376 PEMBRIDGE TRCE Cobb County, GA",2018-01-02,"$249,000.00",249000,2022,123.1454005934718,"https://www.google.com/maps/search/1376%20PEMBRIDGE%20TRCE%20Cobb%20County,%20GA",33.9911136,-84.6916126
15,3849 CRESTMORE DR,"3849 CRESTMORE DR Cobb County, GA",2018-01-02,"$137,250.00",137250,1473,93.17718940936864,"https://www.google.com/maps/search/3849%20CRESTMORE%20DR%20Cobb%20County,%20GA",34.046056,-84.5485708
16,4810 IVY RIDGE DR UNIT 30,"4810 IVY RIDGE DR UNIT 30 Cobb County, GA",2018-01-02,"$245,000.00",245000,1193,205.3646269907796,"https://www.google.com/maps/search/4810%20IVY%20RIDGE%20DR%20UNIT%2030%20Cobb%20County,%20GA",33.8425116,-84.4832445
17,5676 FAIRWOOD DR,"5676 FAIRWOOD DR Cobb County, GA",2018-01-03,"$285,000.00",285000,2574,110.72261072261072,"https://www.google.com/maps/search/5676%20FAIRWOOD%20DR%20Cobb%20County,%20GA",33.980476,-84.7208348
18,2463 NATOMA CT UNIT 9,"2463 NATOMA CT UNIT 9 Cobb County, GA",2018-01-03,"$273,000.00",273000,1526,178.89908256880733,"https://www.google.com/maps/search/2463%20NATOMA%20CT%20UNIT%209%20Cobb%20County,%20GA",33.8365261,-84.4893606
19,4966 TURTLE ROCK DR,"4966 TURTLE ROCK DR Cobb County, GA",2018-01-03,"$206,500.00",206500,1300,158.84615384615384,"https://www.google.com/maps/search/4966%20TURTLE%20ROCK%20DR%20Cobb%20County,%20GA",34.0686154,-84.480527
20,390 SIGNATURE CIR UNIT 8,"390 SIGNATURE CIR UNIT 8 Cobb County, GA",2018-01-03,"$275,000.00",275000,1928,142.63485477178423,"https://www.google.com/maps/search/390%20SIGNATURE%20CIR%20UNIT%208%20Cobb%20County,%20GA",33.9440575,-84.6947162
21,745 PARK MANOR DR SE,"745 PARK MANOR DR SE Cobb County, GA",2018-01-03,"$380,000.00",380000,2585,147.0019342359768,"https://www.google.com/maps/search/745%20PARK%20MANOR%20DR%20SE%20Cobb%20County,%20GA",33.8670144,-84.5327814
22,3711 HOPKINS RD,"3711 HOPKINS RD Cobb County, GA",2018-01-03,"$116,000.00",116000,1560,74.35897435897436,"https://www.google.com/maps/search/3711%20HOPKINS%20RD%20Cobb%20County,%20GA",33.86297,-84.6568421
23,4922 LAKE PARK LN,"4922 LAKE PARK LN Cobb County, GA",2018-01-03,"$212,400.00",212400,1793,118.4606804238706,"https://www.google.com/maps/search/4922%20LAKE%20PARK%20LN%20Cobb%20County,%20GA",34.0699217,-84.6381433
24,2086 CHEROKEE RIDGE TRL,"2086 CHEROKEE RIDGE TRL Cobb County, GA",2018-01-03,"$160,000.00",160000,1302,122.88786482334868,"https://www.google.com/maps/search/2086%20CHEROKEE%20RIDGE%20TRL%20Cobb%20County,%20GA",34.0252652,-84.6085193
25,5074 CENTENNIAL COMMONS DR,"5074 CENTENNIAL COMMONS DR Cobb County, GA",2018-01-03,"$230,000.00",230000,2261,101.7249004865104,"https://www.google.com/maps/search/5074%20CENTENNIAL%20COMMONS%20DR%20Cobb%20County,%20GA",34.0813241,-84.6227915
26,249 TIMBER CREEK LN,"249 TIMBER CREEK LN Cobb County, GA",2018-01-03,"$114,055.00",114055,1408,81.0049715909091,"https://www.google.com/maps/search/249%20TIMBER%20CREEK%20LN%20Cobb%20County,%20GA",33.8873244,-84.5585908
27,INDIAN WOOD CIR,"INDIAN WOOD CIR Cobb County, GA",2018-01-03,"$250,000.00",250000,1950,128.2051282051282,"https://www.google.com/maps/search/INDIAN%20WOOD%20CIR%20Cobb%20County,%20GA",33.8016882,-84.5100449
28,2297 DARLINGTON WAY,"2297 DARLINGTON WAY Cobb County, GA",2018-01-03,"$405,891.00",405891,2810,144.44519572953735,"https://www.google.com/maps/search/2297%20DARLINGTON%20WAY%20Cobb%20County,%20GA",33.8970642,-84.6207265
29,4585 SAGEBRUSH DR,"4585 SAGEBRUSH DR Cobb County, GA",2018-01-03,"$225,000.00",225000,1588,141.68765743073047,"https://www.google.com/maps/search/4585%20SAGEBRUSH%20DR%20Cobb%20County,%20GA",33.9837429,-84.6838476
30,3307 PERRINGTON PT,"3307 PERRINGTON PT Cobb County, GA",2018-01-03,"$617,500.00",617500,3615,170.81604426002767,"https://www.google.com/maps/search/3307%20PERRINGTON%20PT%20Cobb%20County,%20GA",34.0374568,-84.4746923
31,2381 CHIMNEY SPRINGS DR,"2381 CHIMNEY SPRINGS DR Cobb County, GA",2018-01-03,"$352,000.00",352000,2430,144.8559670781893,"https://www.google.com/maps/search/2381%20CHIMNEY%20SPRINGS%20DR%20Cobb%20County,%20GA",34.0072344,-84.4199542
32,137 FLATWOOD TRL UNIT 21,"137 FLATWOOD TRL UNIT 21 Cobb County, GA",2018-01-03,"$201,000.00",201000,1700,118.23529411764706,"https://www.google.com/maps/search/137%20FLATWOOD%20TRL%20UNIT%2021%20Cobb%20County,%20GA",34.0090757,-84.5574929
33,4841 CLAY BROOKE DR,"4841 CLAY BROOKE DR Cobb County, GA",2018-01-04,"$360,167.00",360167,2837,126.95347197744096,"https://www.google.com/maps/search/4841%20CLAY%20BROOKE%20DR%20Cobb%20County,%20GA",33.834474,-84.505812
34,3305 SCARLETT LN,"3305 SCARLETT LN Cobb County, GA",2018-01-04,"$78,000.00",78000,912,85.52631578947368,"https://www.google.com/maps/search/3305%20SCARLETT%20LN%20Cobb%20County,%20GA",34.033857,-84.6085193
35,2571 STOCKBRIDGE RD,"2571 STOCKBRIDGE RD Cobb County, GA",2018-01-04,"$410,000.00",410000,2159,189.902732746642,"https://www.google.com/maps/search/2571%20STOCKBRIDGE%20RD%20Cobb%20County,%20GA",34.0096884,-84.4233598
36,2809 STONE HALL DR,"2809 STONE HALL DR Cobb County, GA",2018-01-04,"$375,000.00",375000,5197,72.15701366172792,"https://www.google.com/maps/search/2809%20STONE%20HALL%20DR%20Cobb%20County,%20GA",33.9776079,-84.471605
37,2250 BRIARCREEK BND,"2250 BRIARCREEK BND Cobb County, GA",2018-01-04,"$315,000.00",315000,2770,113.71841155234657,"https://www.google.com/maps/search/2250%20BRIARCREEK%20BND%20Cobb%20County,%20GA",34.0095037,-84.6671801
38,4752 BIG OAK BND,"4752 BIG OAK BND Cobb County, GA",2018-01-04,"$343,000.00",343000,2288,149.9125874125874,"https://www.google.com/maps/search/4752%20BIG%20OAK%20BND%20Cobb%20County,%20GA",34.0138969,-84.4128142
39,1302 MILSTEAD TRCE,"1302 MILSTEAD TRCE Cobb County, GA",2018-01-04,"$252,700.00",252700,2516,100.43720190779014,"https://www.google.com/maps/search/1302%20MILSTEAD%20TRCE%20Cobb%20County,%20GA",34.0094571,-84.509991
40,5216 BOWSPRIT PTE,"5216 BOWSPRIT PTE Cobb County, GA",2018-01-04,"$367,900.00",367900,2742,134.17213712618528,"https://www.google.com/maps/search/5216%20BOWSPRIT%20PTE%20Cobb%20County,%20GA",error,error
41,2770 JIMS RD,"2770 JIMS RD Cobb County, GA",2018-01-04,"$708,500.00",708500,3939,179.86798679867988,"https://www.google.com/maps/search/2770%20JIMS%20RD%20Cobb%20County,%20GA",34.060388,-84.467774
42,3526 MARCIA DR,"3526 MARCIA DR Cobb County, GA",2018-01-04,"$170,000.00",170000,999,170.17017017017017,"https://www.google.com/maps/search/3526%20MARCIA%20DR%20Cobb%20County,%20GA",33.8682777,-84.5534836
43,1101 NEW HAVEN DR,"1101 NEW HAVEN DR Cobb County, GA",2018-01-04,"$109,800.00",109800,1092,100.54945054945055,"https://www.google.com/maps/search/1101%20NEW%20HAVEN%20DR%20Cobb%20County,%20GA",33.9526154,-84.5841021
44,715 CHESTNUT HILL DR,"715 CHESTNUT HILL DR Cobb County, GA",2018-01-04,"$145,000.00",145000,1593,91.02322661644696,"https://www.google.com/maps/search/715%20CHESTNUT%20HILL%20DR%20Cobb%20County,%20GA",33.9354984,-84.5614251
45,5748 FAIRWOOD DR,"5748 FAIRWOOD DR Cobb County, GA",2018-01-04,"$288,000.00",288000,2886,99.7920997920998,"https://www.google.com/maps/search/5748%20FAIRWOOD%20DR%20Cobb%20County,%20GA",33.97651,-84.7297809
46,752 WEXFORD COVE WAY,"752 WEXFORD COVE WAY Cobb County, GA",2018-01-04,"$293,030.00",293030,2084,140.60940499040308,"https://www.google.com/maps/search/752%20WEXFORD%20COVE%20WAY%20Cobb%20County,%20GA",33.7937925,-84.5308641
47,213 LAURA LAKE RD,"213 LAURA LAKE RD Cobb County, GA",2018-01-04,"$239,000.00",239000,2859,83.59566281916754,"https://www.google.com/maps/search/213%20LAURA%20LAKE%20RD%20Cobb%20County,%20GA",34.0031401,-84.5460938
48,941 BRENTWOOD DR SE,"941 BRENTWOOD DR SE Cobb County, GA",2018-01-04,"$255,000.00",255000,1456,175.13736263736263,"https://www.google.com/maps/search/941%20BRENTWOOD%20DR%20SE%20Cobb%20County,%20GA",33.8630817,-84.5264172
49,4001 VILLA LAKE RD,"4001 VILLA LAKE RD Cobb County, GA",2018-01-04,"$226,921.00",226921,2870,79.06655052264809,"https://www.google.com/maps/search/4001%20VILLA%20LAKE%20RD%20Cobb%20County,%20GA",33.881378,-84.6663629
50,6080 HOLLY PARK LN,"6080 HOLLY PARK LN Cobb County, GA",2018-01-04,"$289,900.00",289900,2100,138.04761904761904,"https://www.google.com/maps/search/6080%20HOLLY%20PARK%20LN%20Cobb%20County,%20GA",33.7998555,-84.5158791
51,3134 SHIRLEY DR,"3134 SHIRLEY DR Cobb County, GA",2018-01-04,"$137,500.00",137500,1176,116.921768707483,"https://www.google.com/maps/search/3134%20SHIRLEY%20DR%20Cobb%20County,%20GA",34.0294216,-84.6132635
52,1784 FARMLAND DR,"1784 FARMLAND DR Cobb County, GA",2018-01-04,"$539,900.00",539900,3803,141.9668682618985,"https://www.google.com/maps/search/1784%20FARMLAND%20DR%20Cobb%20County,%20GA",34.001263,-84.7385347
53,1908 SHENANDOAH VALLEY LN,"1908 SHENANDOAH VALLEY LN Cobb County, GA",2018-01-05,"$86,000.00",86000,1008,85.31746031746032,"https://www.google.com/maps/search/1908%20SHENANDOAH%20VALLEY%20LN%20Cobb%20County,%20GA",33.8850237,-84.4984902
54,2005 IVY RIDGE RD,"2005 IVY RIDGE RD Cobb County, GA",2018-01-05,"$488,000.00",488000,3270,149.23547400611622,"https://www.google.com/maps/search/2005%20IVY%20RIDGE%20RD%20Cobb%20County,%20GA",33.8660263,-84.4968385
55,1906 SHENANDOAH VALLEY LN,"1906 SHENANDOAH VALLEY LN Cobb County, GA",2018-01-05,"$98,000.00",98000,1008,97.22222222222224,"https://www.google.com/maps/search/1906%20SHENANDOAH%20VALLEY%20LN%20Cobb%20County,%20GA",33.8850245,-84.4985387
56,3171 SHAW RD,"3171 SHAW RD Cobb County, GA",2018-01-05,"$228,000.00",228000,1760,129.54545454545453,"https://www.google.com/maps/search/3171%20SHAW%20RD%20Cobb%20County,%20GA",34.0267857,-84.5112783
57,5143 OLIVE BRANCH CIR,"5143 OLIVE BRANCH CIR Cobb County, GA",2018-01-05,"$287,300.00",287300,3074,93.46128822381262,"https://www.google.com/maps/search/5143%20OLIVE%20BRANCH%20CIR%20Cobb%20County,%20GA",33.891261,-84.7034417
58,52 PIONEER TRL NE,"52 PIONEER TRL NE Cobb County, GA",2018-01-05,"$285,000.00",285000,1258,226.550079491256,"https://www.google.com/maps/search/52%20PIONEER%20TRL%20NE%20Cobb%20County,%20GA",33.9512064,-84.4897079
59,3520 TEN OAKS CT,"3520 TEN OAKS CT Cobb County, GA",2018-01-05,"$80,000.00",80000,1376,58.13953488372093,"https://www.google.com/maps/search/3520%20TEN%20OAKS%20CT%20Cobb%20County,%20GA",33.8670727,-84.6509008
60,341 SOMERSET LN SE,"341 SOMERSET LN SE Cobb County, GA",2018-01-05,"$415,000.00",415000,2524,164.4215530903328,"https://www.google.com/maps/search/341%20SOMERSET%20LN%20SE%20Cobb%20County,%20GA",33.943127,-84.4509251
61,1919 BURKWOOD CT,"1919 BURKWOOD CT Cobb County, GA",2018-01-05,"$145,000.00",145000,1328,109.1867469879518,"https://www.google.com/maps/search/1919%20BURKWOOD%20CT%20Cobb%20County,%20GA",33.8777637,-84.6091737
62,205 AVENTINE LN,"205 AVENTINE LN Cobb County, GA",2018-01-05,"$264,900.00",264900,1572,168.5114503816794,"https://www.google.com/maps/search/205%20AVENTINE%20LN%20Cobb%20County,%20GA",33.8770797,-84.5364734
63,3364 GILLEY DR,"3364 GILLEY DR Cobb County, GA",2018-01-05,"$307,000.00",307000,2394,128.23725981620717,"https://www.google.com/maps/search/3364%20GILLEY%20DR%20Cobb%20County,%20GA",33.8989932,-84.6516111
64,509 TOWNESIDE LN,"509 TOWNESIDE LN Cobb County, GA",2018-01-05,"$480,000.00",480000,4343,110.52268017499424,"https://www.google.com/maps/search/509%20TOWNESIDE%20LN%20Cobb%20County,%20GA",33.9654597,-84.6167395
65,2920 LASSITER MANOR DR,"2920 LASSITER MANOR DR Cobb County, GA",2018-01-05,"$775,000.00",775000,4380,176.9406392694064,"https://www.google.com/maps/search/2920%20LASSITER%20MANOR%20DR%20Cobb%20County,%20GA",34.0206919,-84.4320779
66,1771 HAMMOND WOODS CIR,"1771 HAMMOND WOODS CIR Cobb County, GA",2018-01-05,"$189,900.00",189900,1592,119.28391959798996,"https://www.google.com/maps/search/1771%20HAMMOND%20WOODS%20CIR%20Cobb%20County,%20GA",33.9094045,-84.5894162
67,2700 PACES FERRY RD UNIT 205,"2700 PACES FERRY RD UNIT 205 Cobb County, GA",2018-01-05,"$875,000.00",875000,2422,361.271676300578,"https://www.google.com/maps/search/2700%20PACES%20FERRY%20RD%20UNIT%20205%20Cobb%20County,%20GA",33.8646768,-84.4747474
68,4505 ASHMORE CIR,"4505 ASHMORE CIR Cobb County, GA",2018-01-05,"$376,000.00",376000,2372,158.51602023608768,"https://www.google.com/maps/search/4505%20ASHMORE%20CIR%20Cobb%20County,%20GA",34.0625106,-84.4624068
69,4803 SCHOOL ST,"4803 SCHOOL ST Cobb County, GA",2018-01-05,"$126,000.00",126000,912,138.1578947368421,"https://www.google.com/maps/search/4803%20SCHOOL%20ST%20Cobb%20County,%20GA",34.0692838,-84.6779246
70,25 LATIMER LN,"25 LATIMER LN Cobb County, GA",2018-01-05,"$173,230.00",173230,2477,69.93540573274122,"https://www.google.com/maps/search/25%20LATIMER%20LN%20Cobb%20County,%20GA",34.0655647,-84.5473425
71,2300 ENGINEERS DR,"2300 ENGINEERS DR Cobb County, GA",2018-01-05,"$275,000.00",275000,1513,181.75809649702575,"https://www.google.com/maps/search/2300%20ENGINEERS%20DR%20Cobb%20County,%20GA",33.9422132,-84.4857324
72,4454 REDAN CT,"4454 REDAN CT Cobb County, GA",2018-01-05,"$435,000.00",435000,3153,137.9638439581351,"https://www.google.com/maps/search/4454%20REDAN%20CT%20Cobb%20County,%20GA",33.8434699,-84.4940852
73,2950 MOUNT WILKINSON PKWY UNIT 615,"2950 MOUNT WILKINSON PKWY UNIT 615 Cobb County, GA",2018-01-05,"$650,000.00",650000,1829,355.3854565336249,"https://www.google.com/maps/search/2950%20MOUNT%20WILKINSON%20PKWY%20UNIT%20615%20Cobb%20County,%20GA",33.8694068,-84.4676265
74,1834 BRACKENDALE RD,"1834 BRACKENDALE RD Cobb County, GA",2018-01-05,"$355,000.00",355000,3906,90.8858166922683,"https://www.google.com/maps/search/1834%20BRACKENDALE%20RD%20Cobb%20County,%20GA",33.999827,-84.6813151
75,3295 DUNN ST,"3295 DUNN ST Cobb County, GA",2018-01-05,"$293,000.00",293000,1734,168.97347174163784,"https://www.google.com/maps/search/3295%20DUNN%20ST%20Cobb%20County,%20GA",33.8733773,-84.5155215
76,517 EMBRY LN,"517 EMBRY LN Cobb County, GA",2018-01-05,"$185,000.00",185000,1848,100.10822510822511,"https://www.google.com/maps/search/517%20EMBRY%20LN%20Cobb%20County,%20GA",34.0338139,-84.5356728
77,3303 MARS HILL RD,"3303 MARS HILL RD Cobb County, GA",2018-01-05,"$656,000.00",656000,4082,160.70553650171485,"https://www.google.com/maps/search/3303%20MARS%20HILL%20RD%20Cobb%20County,%20GA",34.0354083,-84.6932006
78,4295 BRIGHTON WAY,"4295 BRIGHTON WAY Cobb County, GA",2018-01-05,"$239,000.00",239000,2040,117.15686274509804,"https://www.google.com/maps/search/4295%20BRIGHTON%20WAY%20Cobb%20County,%20GA",34.0584405,-84.633483
79,326 ROSWELL ST SUITE/UNIT 504/5G,"326 ROSWELL ST SUITE/UNIT 504/5G Cobb County, GA",2018-01-05,"$215,000.00",215000,1158,185.66493955094992,"https://www.google.com/maps/search/326%20ROSWELL%20ST%20SUITE/UNIT%20504/5G%20Cobb%20County,%20GA",33.9499246,-84.542809
80,31 JEKYLL DR UNIT 8,"31 JEKYLL DR UNIT 8 Cobb County, GA",2018-01-05,"$177,900.00",177900,1624,109.54433497536944,"https://www.google.com/maps/search/31%20JEKYLL%20DR%20UNIT%208%20Cobb%20County,%20GA",34.0081217,-84.5581423
81,3247 COUNTRYSIDE DR SE,"3247 COUNTRYSIDE DR SE Cobb County, GA",2018-01-05,"$305,000.00",305000,2164,140.9426987060998,"https://www.google.com/maps/search/3247%20COUNTRYSIDE%20DR%20SE%20Cobb%20County,%20GA",33.9296386,-84.4619558
82,4272 LAUREL BROOK DR,"4272 LAUREL BROOK DR Cobb County, GA",2018-01-05,"$305,000.00",305000,1647,185.1851851851852,"https://www.google.com/maps/search/4272%20LAUREL%20BROOK%20DR%20Cobb%20County,%20GA",33.8493312,-84.5182661
83,4736 WOODLAND BROOK CT,"4736 WOODLAND BROOK CT Cobb County, GA",2018-01-05,"$392,000.00",392000,2747,142.70112850382236,"https://www.google.com/maps/search/4736%20WOODLAND%20BROOK%20CT%20Cobb%20County,%20GA",33.8378212,-84.4736249
84,476 DELK ST,"476 DELK ST Cobb County, GA",2018-01-05,"$105,000.00",105000,1526,68.80733944954129,"https://www.google.com/maps/search/476%20DELK%20ST%20Cobb%20County,%20GA",33.9409117,-84.5414056
85,3355 SOMERSET TRCE,"3355 SOMERSET TRCE Cobb County, GA",2018-01-05,"$389,900.00",389900,2277,171.2340799297321,"https://www.google.com/maps/search/3355%20SOMERSET%20TRCE%20Cobb%20County,%20GA",33.944713,-84.4562562
86,1839 BILL MURDOCK RD,"1839 BILL MURDOCK RD Cobb County, GA",2018-01-05,"$285,700.00",285700,1610,177.45341614906832,"https://www.google.com/maps/search/1839%20BILL%20MURDOCK%20RD%20Cobb%20County,%20GA",33.9947281,-84.4437889
87,3951 GOLFLINKS DR,"3951 GOLFLINKS DR Cobb County, GA",2018-01-05,"$277,000.00",277000,2577,107.48932867675592,"https://www.google.com/maps/search/3951%20GOLFLINKS%20DR%20Cobb%20County,%20GA",34.0491296,-84.6723279
88,4196 WINTHROP DWNS,"4196 WINTHROP DWNS Cobb County, GA",2018-01-05,"$273,888.00",273888,2677,102.31154277175943,"https://www.google.com/maps/search/4196%20WINTHROP%20DWNS%20Cobb%20County,%20GA",34.0554132,-84.6371826
89,3115 DELACORTE DR,"3115 DELACORTE DR Cobb County, GA",2018-01-05,"$290,000.00",290000,2797,103.68251698248125,"https://www.google.com/maps/search/3115%20DELACORTE%20DR%20Cobb%20County,%20GA",34.0619756,-84.6434368
90,1362 BRODY DR,"1362 BRODY DR Cobb County, GA",2018-01-05,"$365,000.00",365000,2992,121.99197860962566,"https://www.google.com/maps/search/1362%20BRODY%20DR%20Cobb%20County,%20GA",33.9190328,-84.6357927
91,3617 BELGRAY DR,"3617 BELGRAY DR Cobb County, GA",2018-01-05,"$450,000.00",450000,4064,110.72834645669292,"https://www.google.com/maps/search/3617%20BELGRAY%20DR%20Cobb%20County,%20GA",33.9789254,-84.6537771
92,4053 SILVER FIR CT,"4053 SILVER FIR CT Cobb County, GA",2018-01-05,"$268,000.00",268000,2503,107.07151418298042,"https://www.google.com/maps/search/4053%20SILVER%20FIR%20CT%20Cobb%20County,%20GA",34.0494475,-84.5087209
93,134 NORTH VIEW LN,"134 NORTH VIEW LN Cobb County, GA",2018-01-05,"$168,400.00",168400,1198,140.567612687813,"https://www.google.com/maps/search/134%20NORTH%20VIEW%20LN%20Cobb%20County,%20GA",34.0679727,-84.5537292
94,5080 ALABAMA RD,"5080 ALABAMA RD Cobb County, GA",2018-01-05,"$205,000.00",205000,1460,140.41095890410958,"https://www.google.com/maps/search/5080%20ALABAMA%20RD%20Cobb%20County,%20GA",34.073234,-84.428056
95,504 GARDENIA LN,"504 GARDENIA LN Cobb County, GA",2018-01-05,"$235,000.00",235000,2260,103.98230088495576,"https://www.google.com/maps/search/504%20GARDENIA%20LN%20Cobb%20County,%20GA",33.9601954,-84.4043673
96,2070 ECTOR OVRLK,"2070 ECTOR OVRLK Cobb County, GA",2018-01-05,"$385,000.00",385000,3298,116.737416616131,"https://www.google.com/maps/search/2070%20ECTOR%20OVRLK%20Cobb%20County,%20GA",33.9817471,-84.6123842
97,151 OLD BEE TREE DR,"151 OLD BEE TREE DR Cobb County, GA",2018-01-05,"$195,000.00",195000,1345,144.9814126394052,"https://www.google.com/maps/search/151%20OLD%20BEE%20TREE%20DR%20Cobb%20County,%20GA",33.9544684,-84.5141697
98,1221 WYNFORD CLNY,"1221 WYNFORD CLNY Cobb County, GA",2018-01-05,"$235,000.00",235000,1880,125.0,"https://www.google.com/maps/search/1221%20WYNFORD%20CLNY%20Cobb%20County,%20GA",33.9194106,-84.6364877
99,906 NOLANBY BAY NW,"906 NOLANBY BAY NW Cobb County, GA",2018-01-05,"$418,495.00",418495,3108,134.6509009009009,"https://www.google.com/maps/search/906%20NOLANBY%20BAY%20NW%20Cobb%20County,%20GA",34.0587688,-84.5776116
100,2526 ZACHARY WOODS DR,"2526 ZACHARY WOODS DR Cobb County, GA",2018-01-05,"$227,500.00",227500,2312,98.39965397923876,"https://www.google.com/maps/search/2526%20ZACHARY%20WOODS%20DR%20Cobb%20County,%20GA",33.9558508,-84.6294151
101,4448 STERLING POINTE DR,"4448 STERLING POINTE DR Cobb County, GA",2018-01-05,"$484,000.00",484000,4206,115.07370423204944,"https://www.google.com/maps/search/4448%20STERLING%20POINTE%20DR%20Cobb%20County,%20GA",34.0061166,-84.6877483
102,2814 QUINCE LN,"2814 QUINCE LN Cobb County, GA",2018-01-08,"$238,000.00",238000,1698,140.16489988221437,"https://www.google.com/maps/search/2814%20QUINCE%20LN%20Cobb%20County,%20GA",34.0730299,-84.6309875
103,4955 IVY RIDGE DR SE UNIT 27,"4955 IVY RIDGE DR SE UNIT 27 Cobb County, GA",2018-01-08,"$260,000.00",260000,1423,182.71257905832744,"https://www.google.com/maps/search/4955%20IVY%20RIDGE%20DR%20SE%20UNIT%2027%20Cobb%20County,%20GA",33.843754,-84.4822846
104,2235 RUNNYMEADE RDG,"2235 RUNNYMEADE RDG Cobb County, GA",2018-01-08,"$136,000.00",136000,1446,94.05255878284925,"https://www.google.com/maps/search/2235%20RUNNYMEADE%20RDG%20Cobb%20County,%20GA",34.0347704,-84.5212867
105,4533 VININGS CENTRAL TRCE UNIT 84,"4533 VININGS CENTRAL TRCE UNIT 84 Cobb County, GA",2018-01-08,"$153,000.00",153000,1350,113.33333333333331,"https://www.google.com/maps/search/4533%20VININGS%20CENTRAL%20TRCE%20UNIT%2084%20Cobb%20County,%20GA",33.8415962,-84.4780661
106,3627 LAKESHORE DR SW,"3627 LAKESHORE DR SW Cobb County, GA",2018-01-08,"$85,000.00",85000,1321,64.3451930355791,"https://www.google.com/maps/search/3627%20LAKESHORE%20DR%20SW%20Cobb%20County,%20GA",33.8683238,-84.5604427
107,5758 DOGWOOD CIR SW,"5758 DOGWOOD CIR SW Cobb County, GA",2018-01-08,"$62,500.00",62500,2025,30.8641975308642,"https://www.google.com/maps/search/5758%20DOGWOOD%20CIR%20SW%20Cobb%20County,%20GA",33.8139442,-84.6103598
108,704 MADISON LN,"704 MADISON LN Cobb County, GA",2018-01-08,"$185,000.00",185000,1403,131.86029935851747,"https://www.google.com/maps/search/704%20MADISON%20LN%20Cobb%20County,%20GA",33.8834738,-84.5241587
109,1205 W BOOTH ROAD EXT,"1205 W BOOTH ROAD EXT Cobb County, GA",2018-01-08,"$100,000.00",100000,1184,84.45945945945945,"https://www.google.com/maps/search/1205%20W%20BOOTH%20ROAD%20EXT%20Cobb%20County,%20GA",33.9232884,-84.5601789
110,2049 EVERGREEN DR SW,"2049 EVERGREEN DR SW Cobb County, GA",2018-01-08,"$175,000.00",175000,2475,70.70707070707071,"https://www.google.com/maps/search/2049%20EVERGREEN%20DR%20SW%20Cobb%20County,%20GA",33.836074,-84.6142041
111,3214 NEW RUTLEDGE RD,"3214 NEW RUTLEDGE RD Cobb County, GA",2018-01-08,"$200,500.00",200500,1248,160.65705128205127,"https://www.google.com/maps/search/3214%20NEW%20RUTLEDGE%20RD%20Cobb%20County,%20GA",34.0267789,-84.6442134
112,1192 HEMBREE LN SW,"1192 HEMBREE LN SW Cobb County, GA",2018-01-08,"$145,000.00",145000,1462,99.17920656634747,"https://www.google.com/maps/search/1192%20HEMBREE%20LN%20SW%20Cobb%20County,%20GA",33.7872913,-84.5897435
113,1940 OAK RIDGE CT,"1940 OAK RIDGE CT Cobb County, GA",2018-01-08,"$245,000.00",245000,1474,166.21438263229308,"https://www.google.com/maps/search/1940%20OAK%20RIDGE%20CT%20Cobb%20County,%20GA",33.9743859,-84.4954043
114,203 RIPPLING DR,"203 RIPPLING DR Cobb County, GA",2018-01-08,"$557,250.00",557250,3649,152.71307207454095,"https://www.google.com/maps/search/203%20RIPPLING%20DR%20Cobb%20County,%20GA",33.9568491,-84.628904
115,4526 COLUMNS DR,"4526 COLUMNS DR Cobb County, GA",2018-01-08,"$1,077,500.00",1077500,4847,222.30245512688265,"https://www.google.com/maps/search/4526%20COLUMNS%20DR%20Cobb%20County,%20GA",33.9316141,-84.4205081
116,5265 KERSHAW CT UNIT 6,"5265 KERSHAW CT UNIT 6 Cobb County, GA",2018-01-08,"$239,900.00",239900,1720,139.47674418604652,"https://www.google.com/maps/search/5265%20KERSHAW%20CT%20UNIT%206%20Cobb%20County,%20GA",33.8250972,-84.4867218
117,3576 KENNESAW STATION DR,"3576 KENNESAW STATION DR Cobb County, GA",2018-01-08,"$133,500.00",133500,1168,114.29794520547944,"https://www.google.com/maps/search/3576%20KENNESAW%20STATION%20DR%20Cobb%20County,%20GA",34.0401316,-84.6003983
118,452 DARTER DR,"452 DARTER DR Cobb County, GA",2018-01-08,"$232,000.00",232000,2027,114.45485939812532,"https://www.google.com/maps/search/452%20DARTER%20DR%20Cobb%20County,%20GA",34.0430191,-84.6698274
119,1724 WHITFIELD PARC CIR SE,"1724 WHITFIELD PARC CIR SE Cobb County, GA",2018-01-08,"$394,000.00",394000,2473,159.32066316215122,"https://www.google.com/maps/search/1724%20WHITFIELD%20PARC%20CIR%20SE%20Cobb%20County,%20GA",33.8876835,-84.5066669
120,2670 BARAMORE RD,"2670 BARAMORE RD Cobb County, GA",2018-01-08,"$215,000.00",215000,1756,122.4373576309795,"https://www.google.com/maps/search/2670%20BARAMORE%20RD%20Cobb%20County,%20GA",34.0142193,-84.4883555
121,2117 JOCKEY HOLLOW DR,"2117 JOCKEY HOLLOW DR Cobb County, GA",2018-01-08,"$300,000.00",300000,2905,103.27022375215148,"https://www.google.com/maps/search/2117%20JOCKEY%20HOLLOW%20DR%20Cobb%20County,%20GA",34.0075541,-84.6652597
122,3140 NECTAR DR,"3140 NECTAR DR Cobb County, GA",2018-01-09,"$165,000.00",165000,1217,135.57929334428923,"https://www.google.com/maps/search/3140%20NECTAR%20DR%20Cobb%20County,%20GA",33.8806973,-84.6939165
123,3439 SHARON DR,"3439 SHARON DR Cobb County, GA",2018-01-09,"$165,000.00",165000,2400,68.75,"https://www.google.com/maps/search/3439%20SHARON%20DR%20Cobb%20County,%20GA",33.8529221,-84.6597435
124,820 MUIRFIELD TRCE,"820 MUIRFIELD TRCE Cobb County, GA",2018-01-09,"$473,500.00",473500,2656,178.27560240963857,"https://www.google.com/maps/search/820%20MUIRFIELD%20TRCE%20Cobb%20County,%20GA",33.9697294,-84.4332881
125,3921 ABERNATHY FARM WAY UNIT 12,"3921 ABERNATHY FARM WAY UNIT 12 Cobb County, GA",2018-01-09,"$164,000.00",164000,1964,83.5030549898167,"https://www.google.com/maps/search/3921%20ABERNATHY%20FARM%20WAY%20UNIT%2012%20Cobb%20County,%20GA",34.0515539,-84.7001394
126,3900 HADLEY FARM DR,"3900 HADLEY FARM DR Cobb County, GA",2018-01-09,"$172,000.00",172000,1604,107.23192019950125,"https://www.google.com/maps/search/3900%20HADLEY%20FARM%20DR%20Cobb%20County,%20GA",34.0459541,-84.5228128
127,5002 BRIGHTHAMPTON DR,"5002 BRIGHTHAMPTON DR Cobb County, GA",2018-01-09,"$335,000.00",335000,2070,161.83574879227052,"https://www.google.com/maps/search/5002%20BRIGHTHAMPTON%20DR%20Cobb%20County,%20GA",error,error
128,1 MANUEL DR,"1 MANUEL DR Cobb County, GA",2018-01-09,"$158,000.00",158000,1410,112.05673758865248,"https://www.google.com/maps/search/1%20MANUEL%20DR%20Cobb%20County,%20GA",33.988413,-84.549265
129,444 PINE RIDGE TRL,"444 PINE RIDGE TRL Cobb County, GA",2018-01-09,"$188,500.00",188500,1855,101.61725067385444,"https://www.google.com/maps/search/444%20PINE%20RIDGE%20TRL%20Cobb%20County,%20GA",33.9411911,-84.4847283
130,1709 RIVERVIEW DR,"1709 RIVERVIEW DR Cobb County, GA",2018-01-09,"$105,000.00",105000,1164,90.20618556701032,"https://www.google.com/maps/search/1709%20RIVERVIEW%20DR%20Cobb%20County,%20GA",33.926674,-84.4379978
131,981 REED RD,"981 REED RD Cobb County, GA",2018-01-09,"$269,000.00",269000,1638,164.22466422466422,"https://www.google.com/maps/search/981%20REED%20RD%20Cobb%20County,%20GA",33.8541061,-84.5254547
132,1839 BELCHER PL,"1839 BELCHER PL Cobb County, GA",2018-01-09,"$99,900.00",99900,1233,81.02189781021897,"https://www.google.com/maps/search/1839%20BELCHER%20PL%20Cobb%20County,%20GA",33.8142033,-84.6076268
133,1287 GOLDEN ROCK LN SE UNIT 1,"1287 GOLDEN ROCK LN SE UNIT 1 Cobb County, GA",2018-01-09,"$360,000.00",360000,2689,133.8787653402752,"https://www.google.com/maps/search/1287%20GOLDEN%20ROCK%20LN%20SE%20UNIT%201%20Cobb%20County,%20GA",33.9212271,-84.4646963
134,1878 WYNRIDGE DR,"1878 WYNRIDGE DR Cobb County, GA",2018-01-09,"$347,000.00",347000,1723,201.39291932675565,"https://www.google.com/maps/search/1878%20WYNRIDGE%20DR%20Cobb%20County,%20GA",33.8647724,-84.4999118
135,3075 MILFORD CHSE,"3075 MILFORD CHSE Cobb County, GA",2018-01-09,"$238,000.00",238000,2338,101.79640718562874,"https://www.google.com/maps/search/3075%20MILFORD%20CHSE%20Cobb%20County,%20GA",33.8841767,-84.5948164
136,175 ENNISBROOK DR,"175 ENNISBROOK DR Cobb County, GA",2018-01-10,"$350,000.00",350000,2702,129.5336787564767,"https://www.google.com/maps/search/175%20ENNISBROOK%20DR%20Cobb%20County,%20GA",33.8714072,-84.5456673
137,272 HOPE ST,"272 HOPE ST Cobb County, GA",2018-01-10,"$285,000.00",285000,1269,224.5862884160757,"https://www.google.com/maps/search/272%20HOPE%20ST%20Cobb%20County,%20GA",33.9587238,-84.5679656
138,157 LAKE SOMERSET DR,"157 LAKE SOMERSET DR Cobb County, GA",2018-01-10,"$375,000.00",375000,2376,157.82828282828282,"https://www.google.com/maps/search/157%20LAKE%20SOMERSET%20DR%20Cobb%20County,%20GA",33.957069,-84.6474424
139,5080 COLLINS LAKE DR,"5080 COLLINS LAKE DR Cobb County, GA",2018-01-10,"$529,000.00",529000,3974,133.1152491192753,"https://www.google.com/maps/search/5080%20COLLINS%20LAKE%20DR%20Cobb%20County,%20GA",33.8309193,-84.5582632
140,2216 EDGARTOWN LN UNIT 4,"2216 EDGARTOWN LN UNIT 4 Cobb County, GA",2018-01-10,"$410,000.00",410000,2684,152.75707898658715,"https://www.google.com/maps/search/2216%20EDGARTOWN%20LN%20UNIT%204%20Cobb%20County,%20GA",33.8499948,-84.4920707
141,1125 VININGS GROVE WAY,"1125 VININGS GROVE WAY Cobb County, GA",2018-01-10,"$475,000.00",475000,3652,130.06571741511502,"https://www.google.com/maps/search/1125%20VININGS%20GROVE%20WAY%20Cobb%20County,%20GA",33.8458851,-84.5218384
142,6830 GALLANT CIR UNIT 2,"6830 GALLANT CIR UNIT 2 Cobb County, GA",2018-01-10,"$79,900.00",79900,1216,65.70723684210526,"https://www.google.com/maps/search/6830%20GALLANT%20CIR%20UNIT%202%20Cobb%20County,%20GA",33.7870733,-84.5483185
143,4146 GLENLAKE TER,"4146 GLENLAKE TER Cobb County, GA",2018-01-10,"$235,000.00",235000,2062,113.96702230843842,"https://www.google.com/maps/search/4146%20GLENLAKE%20TER%20Cobb%20County,%20GA",34.0556233,-84.5864704
144,4599 CEDAR KNOLL DR,"4599 CEDAR KNOLL DR Cobb County, GA",2018-01-10,"$245,000.00",245000,1596,153.50877192982455,"https://www.google.com/maps/search/4599%20CEDAR%20KNOLL%20DR%20Cobb%20County,%20GA",34.0629647,-84.4734764
145,2958 CHIPMUNK TRL,"2958 CHIPMUNK TRL Cobb County, GA",2018-01-10,"$167,000.00",167000,1516,110.15831134564644,"https://www.google.com/maps/search/2958%20CHIPMUNK%20TRL%20Cobb%20County,%20GA",33.9297401,-84.4718313
146,1809 HANNAH PL,"1809 HANNAH PL Cobb County, GA",2018-01-10,"$186,000.00",186000,1520,122.36842105263158,"https://www.google.com/maps/search/1809%20HANNAH%20PL%20Cobb%20County,%20GA",33.9088034,-84.6453579
147,828 OLD CANTON RD,"828 OLD CANTON RD Cobb County, GA",2018-01-10,"$740,000.00",740000,4771,155.10375183399705,"https://www.google.com/maps/search/828%20OLD%20CANTON%20RD%20Cobb%20County,%20GA",33.9702204,-84.4620173
148,358 TIMBER WAY,"358 TIMBER WAY Cobb County, GA",2018-01-10,"$226,800.00",226800,1912,118.61924686192468,"https://www.google.com/maps/search/358%20TIMBER%20WAY%20Cobb%20County,%20GA",34.0253704,-84.5390875
149,457 MORNINGSIDE DR NE,"457 MORNINGSIDE DR NE Cobb County, GA",2018-01-10,"$100,000.00",100000,1588,62.97229219143577,"https://www.google.com/maps/search/457%20MORNINGSIDE%20DR%20NE%20Cobb%20County,%20GA",33.9613813,-84.5387285
150,2995 WENDY LN,"2995 WENDY LN Cobb County, GA",2018-01-10,"$275,000.00",275000,1696,162.14622641509433,"https://www.google.com/maps/search/2995%20WENDY%20LN%20Cobb%20County,%20GA",34.0227691,-84.4627554
151,1409 COUNTRYSIDE PL,"1409 COUNTRYSIDE PL Cobb County, GA",2018-01-10,"$146,000.00",146000,1097,133.09024612579762,"https://www.google.com/maps/search/1409%20COUNTRYSIDE%20PL%20Cobb%20County,%20GA",33.8806565,-84.4919149
152,3288 CRAWFORD CIR,"3288 CRAWFORD CIR Cobb County, GA",2018-01-10,"$250,000.00",250000,3005,83.19467554076539,"https://www.google.com/maps/search/3288%20CRAWFORD%20CIR%20Cobb%20County,%20GA",34.0318379,-84.5351404
153,3658 TEN OAKS CIR,"3658 TEN OAKS CIR Cobb County, GA",2018-01-10,"$83,000.00",83000,1114,74.50628366247756,"https://www.google.com/maps/search/3658%20TEN%20OAKS%20CIR%20Cobb%20County,%20GA",33.8685077,-84.6491998
154,838 BONNIE GLEN DR,"838 BONNIE GLEN DR Cobb County, GA",2018-01-10,"$155,000.00",155000,1464,105.8743169398907,"https://www.google.com/maps/search/838%20BONNIE%20GLEN%20DR%20Cobb%20County,%20GA",33.9339362,-84.4838634
155,4204 MASTIC PTE BLDG 24,"4204 MASTIC PTE BLDG 24 Cobb County, GA",2018-01-10,"$175,100.00",175100,1704,102.75821596244133,"https://www.google.com/maps/search/4204%20MASTIC%20PTE%20BLDG%2024%20Cobb%20County,%20GA",error,error
156,1473 SETTLERS WALK WAY BLDG 5,"1473 SETTLERS WALK WAY BLDG 5 Cobb County, GA",2018-01-10,"$162,000.00",162000,1163,139.29492691315562,"https://www.google.com/maps/search/1473%20SETTLERS%20WALK%20WAY%20BLDG%205%20Cobb%20County,%20GA",33.8639941,-84.5894399
157,602 SERRAMONTE DR,"602 SERRAMONTE DR Cobb County, GA",2018-01-10,"$205,000.00",205000,1757,116.67615253272623,"https://www.google.com/maps/search/602%20SERRAMONTE%20DR%20Cobb%20County,%20GA",33.9627989,-84.4054471
158,3008 MISTYMORN TRCE,"3008 MISTYMORN TRCE Cobb County, GA",2018-01-10,"$162,000.00",162000,1250,129.6,"https://www.google.com/maps/search/3008%20MISTYMORN%20TRCE%20Cobb%20County,%20GA",33.8503761,-84.6742625
159,4214 HIGHCROFT MAIN,"4214 HIGHCROFT MAIN Cobb County, GA",2018-01-10,"$239,000.00",239000,2274,105.10114335971856,"https://www.google.com/maps/search/4214%20HIGHCROFT%20MAIN%20Cobb%20County,%20GA",34.0563224,-84.6341948
160,704 BRIDLE PATH,"704 BRIDLE PATH Cobb County, GA",2018-01-10,"$307,500.00",307500,1900,161.8421052631579,"https://www.google.com/maps/search/704%20BRIDLE%20PATH%20Cobb%20County,%20GA",33.950153,-84.4047034
161,2142 TOURNEY DR,"2142 TOURNEY DR Cobb County, GA",2018-01-10,"$230,000.00",230000,1594,144.29109159347553,"https://www.google.com/maps/search/2142%20TOURNEY%20DR%20Cobb%20County,%20GA",34.0037215,-84.4908759
162,2220 DERBYSHIRE DR,"2220 DERBYSHIRE DR Cobb County, GA",2018-01-10,"$457,000.00",457000,3624,126.1037527593819,"https://www.google.com/maps/search/2220%20DERBYSHIRE%20DR%20Cobb%20County,%20GA",33.9002714,-84.6225257
163,1137 DURRELL ST,"1137 DURRELL ST Cobb County, GA",2018-01-10,"$155,000.00",155000,1582,97.97724399494312,"https://www.google.com/maps/search/1137%20DURRELL%20ST%20Cobb%20County,%20GA",33.8585924,-84.5882706
164,1319 GOLDEN ROCK LN SE UNIT 2,"1319 GOLDEN ROCK LN SE UNIT 2 Cobb County, GA",2018-01-11,"$374,965.00",374965,2546,147.27611940298507,"https://www.google.com/maps/search/1319%20GOLDEN%20ROCK%20LN%20SE%20UNIT%202%20Cobb%20County,%20GA",33.920577,-84.4650149
165,2119 IMPERIAL POND SW,"2119 IMPERIAL POND SW Cobb County, GA",2018-01-11,"$273,000.00",273000,1658,164.6562123039807,"https://www.google.com/maps/search/2119%20IMPERIAL%20POND%20SW%20Cobb%20County,%20GA",33.9080629,-84.692588
166,637 AYRES RD,"637 AYRES RD Cobb County, GA",2018-01-11,"$148,000.00",148000,1356,109.14454277286136,"https://www.google.com/maps/search/637%20AYRES%20RD%20Cobb%20County,%20GA",33.8306076,-84.5726769
167,1377 VALMONT TRCE,"1377 VALMONT TRCE Cobb County, GA",2018-01-11,"$345,000.00",345000,2835,121.6931216931217,"https://www.google.com/maps/search/1377%20VALMONT%20TRCE%20Cobb%20County,%20GA",33.9999469,-84.51376
168,400 ELLIS MEADOW CT,"400 ELLIS MEADOW CT Cobb County, GA",2018-01-11,"$100,000.00",100000,3726,26.838432635534083,"https://www.google.com/maps/search/400%20ELLIS%20MEADOW%20CT%20Cobb%20County,%20GA",33.9443916,-84.6181094
169,1262 CALLINGTON PT,"1262 CALLINGTON PT Cobb County, GA",2018-01-11,"$325,000.00",325000,2451,132.59893920848634,"https://www.google.com/maps/search/1262%20CALLINGTON%20PT%20Cobb%20County,%20GA",33.9249851,-84.6982431
170,2711 MATHEWS ST,"2711 MATHEWS ST Cobb County, GA",2018-01-11,"$489,830.00",489830,2275,215.3098901098901,"https://www.google.com/maps/search/2711%20MATHEWS%20ST%20Cobb%20County,%20GA",33.8868701,-84.5052384
171,2017 KENWOOD PL,"2017 KENWOOD PL Cobb County, GA",2018-01-11,"$165,000.00",165000,1038,158.95953757225433,"https://www.google.com/maps/search/2017%20KENWOOD%20PL%20Cobb%20County,%20GA",33.8328813,-84.4956378
172,1315 GOLDEN ROCK LN SE UNIT 2,"1315 GOLDEN ROCK LN SE UNIT 2 Cobb County, GA",2018-01-11,"$367,990.00",367990,2706,135.99039172209905,"https://www.google.com/maps/search/1315%20GOLDEN%20ROCK%20LN%20SE%20UNIT%202%20Cobb%20County,%20GA",33.9206392,-84.4649802
173,328 SHANNONDALE DR,"328 SHANNONDALE DR Cobb County, GA",2018-01-11,"$501,712.00",501712,2287,219.3756012243113,"https://www.google.com/maps/search/328%20SHANNONDALE%20DR%20Cobb%20County,%20GA",33.954823,-84.5425661
174,1119 HAVEL DR,"1119 HAVEL DR Cobb County, GA",2018-01-11,"$150,000.00",150000,1848,81.16883116883118,"https://www.google.com/maps/search/1119%20HAVEL%20DR%20Cobb%20County,%20GA",33.8891369,-84.589989
175,671 HONEY BEAR LN,"671 HONEY BEAR LN Cobb County, GA",2018-01-11,"$252,700.00",252700,1508,167.57294429708222,"https://www.google.com/maps/search/671%20HONEY%20BEAR%20LN%20Cobb%20County,%20GA",33.9663502,-84.4642929
176,329 PIN OAK CT,"329 PIN OAK CT Cobb County, GA",2018-01-11,"$90,000.00",90000,1152,78.125,"https://www.google.com/maps/search/329%20PIN%20OAK%20CT%20Cobb%20County,%20GA",33.9205179,-84.5607217
177,1709 CUMBERLAND CT,"1709 CUMBERLAND CT Cobb County, GA",2018-01-11,"$108,500.00",108500,752,144.28191489361703,"https://www.google.com/maps/search/1709%20CUMBERLAND%20CT%20Cobb%20County,%20GA",33.8750252,-84.4820949
178,5909 OAKDALE RD,"5909 OAKDALE RD Cobb County, GA",2018-01-11,"$50,500.00",50500,576,87.67361111111111,"https://www.google.com/maps/search/5909%20OAKDALE%20RD%20Cobb%20County,%20GA",33.8091401,-84.5059827
179,3338 HOBBIT GLN,"3338 HOBBIT GLN Cobb County, GA",2018-01-11,"$237,900.00",237900,1896,125.4746835443038,"https://www.google.com/maps/search/3338%20HOBBIT%20GLN%20Cobb%20County,%20GA",33.8756131,-84.6858899
180,2814 STILLWATER PARK DR,"2814 STILLWATER PARK DR Cobb County, GA",2018-01-11,"$300,000.00",300000,3169,94.66708740927736,"https://www.google.com/maps/search/2814%20STILLWATER%20PARK%20DR%20Cobb%20County,%20GA",34.0182676,-84.501264
181,6045 GLADIOLA WAY,"6045 GLADIOLA WAY Cobb County, GA",2018-01-11,"$254,900.00",254900,2556,99.72613458528951,"https://www.google.com/maps/search/6045%20GLADIOLA%20WAY%20Cobb%20County,%20GA",33.8244226,-84.6437842
182,242 SILVER ARROW CIR,"242 SILVER ARROW CIR Cobb County, GA",2018-01-11,"$160,000.00",160000,2128,75.18796992481202,"https://www.google.com/maps/search/242%20SILVER%20ARROW%20CIR%20Cobb%20County,%20GA",33.7746807,-84.5522554
183,1974 HIDDEN VALLEY DR,"1974 HIDDEN VALLEY DR Cobb County, GA",2018-01-11,"$119,000.00",119000,1448,82.18232044198895,"https://www.google.com/maps/search/1974%20HIDDEN%20VALLEY%20DR%20Cobb%20County,%20GA",33.8737684,-84.59633
184,2345 DARLINGTON WAY,"2345 DARLINGTON WAY Cobb County, GA",2018-01-11,"$439,853.00",439853,3841,114.51523040874773,"https://www.google.com/maps/search/2345%20DARLINGTON%20WAY%20Cobb%20County,%20GA",33.8988144,-84.6205016
185,305 S WOODLAND DR,"305 S WOODLAND DR Cobb County, GA",2018-01-11,"$575,000.00",575000,2674,215.0336574420344,"https://www.google.com/maps/search/305%20S%20WOODLAND%20DR%20Cobb%20County,%20GA",33.9450713,-84.5647814
186,104 SE MILL POND CT SE,"104 SE MILL POND CT SE Cobb County, GA",2018-01-11,"$92,000.00",92000,1005,91.54228855721394,"https://www.google.com/maps/search/104%20SE%20MILL%20POND%20CT%20SE%20Cobb%20County,%20GA",33.8589954,-84.5224074
187,5150 LAUREL BRIDGE CT,"5150 LAUREL BRIDGE CT Cobb County, GA",2018-01-11,"$141,000.00",141000,1244,113.34405144694534,"https://www.google.com/maps/search/5150%20LAUREL%20BRIDGE%20CT%20Cobb%20County,%20GA",33.8428859,-84.5108137
188,5096 CRIDER CREEK DR,"5096 CRIDER CREEK DR Cobb County, GA",2018-01-11,"$232,900.00",232900,2368,98.35304054054056,"https://www.google.com/maps/search/5096%20CRIDER%20CREEK%20DR%20Cobb%20County,%20GA",33.8366658,-84.7012862
189,533 ROBIN LN SE,"533 ROBIN LN SE Cobb County, GA",2018-01-11,"$250,000.00",250000,1867,133.9046598821639,"https://www.google.com/maps/search/533%20ROBIN%20LN%20SE%20Cobb%20County,%20GA",33.9389229,-84.4864497
190,3814 APPLE WAY,"3814 APPLE WAY Cobb County, GA",2018-01-11,"$255,000.00",255000,1732,147.22863741339492,"https://www.google.com/maps/search/3814%20APPLE%20WAY%20Cobb%20County,%20GA",34.0450054,-84.499584
191,2559 BATES ST,"2559 BATES ST Cobb County, GA",2018-01-11,"$152,500.00",152500,1160,131.4655172413793,"https://www.google.com/maps/search/2559%20BATES%20ST%20Cobb%20County,%20GA",33.8902704,-84.5000619
192,760 WEXFORD COVE WAY,"760 WEXFORD COVE WAY Cobb County, GA",2018-01-12,"$315,650.00",315650,2084,151.46353166986563,"https://www.google.com/maps/search/760%20WEXFORD%20COVE%20WAY%20Cobb%20County,%20GA",33.793923,-84.5308641
193,3436 OWENS LANDING DR,"3436 OWENS LANDING DR Cobb County, GA",2018-01-12,"$300,000.00",300000,3023,99.23916639100231,"https://www.google.com/maps/search/3436%20OWENS%20LANDING%20DR%20Cobb%20County,%20GA",34.0156086,-84.6563575
194,715 ROBERT WAY,"715 ROBERT WAY Cobb County, GA",2018-01-12,"$326,000.00",326000,3599,90.58071686579603,"https://www.google.com/maps/search/715%20ROBERT%20WAY%20Cobb%20County,%20GA",33.932339,-84.6671392
195,3837 HOWARD DR NW,"3837 HOWARD DR NW Cobb County, GA",2018-01-12,"$191,500.00",191500,1468,130.44959128065395,"https://www.google.com/maps/search/3837%20HOWARD%20DR%20NW%20Cobb%20County,%20GA",34.0226458,-84.6629716
196,2129 LANDSMERE DR UNIT 3,"2129 LANDSMERE DR UNIT 3 Cobb County, GA",2018-01-12,"$254,900.00",254900,1824,139.74780701754386,"https://www.google.com/maps/search/2129%20LANDSMERE%20DR%20UNIT%203%20Cobb%20County,%20GA",33.8226005,-84.4913549
197,5355 VININGS LAKE VW,"5355 VININGS LAKE VW Cobb County, GA",2018-01-12,"$325,500.00",325500,2706,120.28824833702882,"https://www.google.com/maps/search/5355%20VININGS%20LAKE%20VW%20Cobb%20County,%20GA",33.8201219,-84.5533812
198,4657 TOWNSHIP CT,"4657 TOWNSHIP CT Cobb County, GA",2018-01-12,"$300,000.00",300000,2456,122.14983713355048,"https://www.google.com/maps/search/4657%20TOWNSHIP%20CT%20Cobb%20County,%20GA",34.0673577,-84.4376568
199,2585 KENNESAW SPRINGS CT,"2585 KENNESAW SPRINGS CT Cobb County, GA",2018-01-12,"$217,900.00",217900,1646,132.38153098420412,"https://www.google.com/maps/search/2585%20KENNESAW%20SPRINGS%20CT%20Cobb%20County,%20GA",34.0335269,-84.624795
200,5094 STONEYWOOD CIR,"5094 STONEYWOOD CIR Cobb County, GA",2018-01-12,"$318,500.00",318500,2436,130.7471264367816,"https://www.google.com/maps/search/5094%20STONEYWOOD%20CIR%20Cobb%20County,%20GA",33.8280008,-84.5450737
201,282 HIGHLANDS RIDGE PL BLDG 10,"282 HIGHLANDS RIDGE PL BLDG 10 Cobb County, GA",2018-01-12,"$295,000.00",295000,1776,166.1036036036036,"https://www.google.com/maps/search/282%20HIGHLANDS%20RIDGE%20PL%20BLDG%2010%20Cobb%20County,%20GA",33.8379333,-84.5165552
202,1719 WYNNDOWNE TRL,"1719 WYNNDOWNE TRL Cobb County, GA",2018-01-12,"$125,000.00",125000,1070,116.82242990654206,"https://www.google.com/maps/search/1719%20WYNNDOWNE%20TRL%20Cobb%20County,%20GA",33.8875873,-84.5024244
203,1750 BRANCH VIEW DR,"1750 BRANCH VIEW DR Cobb County, GA",2018-01-12,"$240,000.00",240000,1534,156.45371577574969,"https://www.google.com/maps/search/1750%20BRANCH%20VIEW%20DR%20Cobb%20County,%20GA",33.9926595,-84.4992562
204,215 CLYDESDALE LN,"215 CLYDESDALE LN Cobb County, GA",2018-01-12,"$120,000.00",120000,1196,100.33444816053512,"https://www.google.com/maps/search/215%20CLYDESDALE%20LN%20Cobb%20County,%20GA",33.8030963,-84.5484889
205,3914 O BRYANT CIR,"3914 O BRYANT CIR Cobb County, GA",2018-01-12,"$530,550.00",530550,3748,141.5554962646745,"https://www.google.com/maps/search/3914%20O%20BRYANT%20CIR%20Cobb%20County,%20GA",33.8595106,-84.5459095
206,2725 ADAMS LANDING WAY,"2725 ADAMS LANDING WAY Cobb County, GA",2018-01-12,"$275,000.00",275000,3133,87.77529524417491,"https://www.google.com/maps/search/2725%20ADAMS%20LANDING%20WAY%20Cobb%20County,%20GA",33.8876772,-84.6547375
207,319 ATLANTA ST SE UNIT 300,"319 ATLANTA ST SE UNIT 300 Cobb County, GA",2018-01-12,"$240,000.00",240000,1317,182.23234624145783,"https://www.google.com/maps/search/319%20ATLANTA%20ST%20SE%20UNIT%20300%20Cobb%20County,%20GA",33.9472211,-84.5473698
208,214 GOLD LEAF TER,"214 GOLD LEAF TER Cobb County, GA",2018-01-12,"$700,000.00",700000,4576,152.97202797202797,"https://www.google.com/maps/search/214%20GOLD%20LEAF%20TER%20Cobb%20County,%20GA",33.9606677,-84.71527
209,108 PATRICK WAY,"108 PATRICK WAY Cobb County, GA",2018-01-12,"$375,000.00",375000,2810,133.45195729537366,"https://www.google.com/maps/search/108%20PATRICK%20WAY%20Cobb%20County,%20GA",33.9508094,-84.5703272
210,3833 STEINHAUER RD NE,"3833 STEINHAUER RD NE Cobb County, GA",2018-01-12,"$470,000.00",470000,3806,123.4892275354703,"https://www.google.com/maps/search/3833%20STEINHAUER%20RD%20NE%20Cobb%20County,%20GA",34.0441063,-84.4767504
211,3785 SEWELL MILL RD,"3785 SEWELL MILL RD Cobb County, GA",2018-01-12,"$860,000.00",860000,5381,159.82159449916372,"https://www.google.com/maps/search/3785%20SEWELL%20MILL%20RD%20Cobb%20County,%20GA",33.9940178,-84.4405486
212,3670 AUTUMN LEAVES LN,"3670 AUTUMN LEAVES LN Cobb County, GA",2018-01-12,"$224,000.00",224000,1564,143.2225063938619,"https://www.google.com/maps/search/3670%20AUTUMN%20LEAVES%20LN%20Cobb%20County,%20GA",34.0376942,-84.5156034
213,4137 HIRAM LITHIA SPRINGS RD,"4137 HIRAM LITHIA SPRINGS RD Cobb County, GA",2018-01-12,"$460,000.00",460000,4005,114.85642946317104,"https://www.google.com/maps/search/4137%20HIRAM%20LITHIA%20SPRINGS%20RD%20Cobb%20County,%20GA",33.8551878,-84.7134125
214,4550 FLOWERING BR,"4550 FLOWERING BR Cobb County, GA",2018-01-12,"$252,781.00",252781,2225,113.6094382022472,"https://www.google.com/maps/search/4550%20FLOWERING%20BR%20Cobb%20County,%20GA",33.8660877,-84.6898108
215,3190 LANCER DR,"3190 LANCER DR Cobb County, GA",2018-01-12,"$102,000.00",102000,1534,66.4928292046936,"https://www.google.com/maps/search/3190%20LANCER%20DR%20Cobb%20County,%20GA",33.8724631,-84.6602338
216,1183 WOODLEIGH RD,"1183 WOODLEIGH RD Cobb County, GA",2018-01-12,"$146,000.00",146000,998,146.2925851703407,"https://www.google.com/maps/search/1183%20WOODLEIGH%20RD%20Cobb%20County,%20GA",33.8931548,-84.5854884
217,1250 PARKWOOD CIR SE UNIT 200/1311,"1250 PARKWOOD CIR SE UNIT 200/1311 Cobb County, GA",2018-01-12,"$164,000.00",164000,1317,124.52543659832952,"https://www.google.com/maps/search/1250%20PARKWOOD%20CIR%20SE%20UNIT%20200/1311%20Cobb%20County,%20GA",33.9018016,-84.4616015
218,482 VIRGINIA PL SE,"482 VIRGINIA PL SE Cobb County, GA",2018-01-12,"$125,000.00",125000,1275,98.03921568627452,"https://www.google.com/maps/search/482%20VIRGINIA%20PL%20SE%20Cobb%20County,%20GA",33.9400902,-84.4990406
219,235 PLANTATION RD,"235 PLANTATION RD Cobb County, GA",2018-01-12,"$208,000.00",208000,1560,133.33333333333334,"https://www.google.com/maps/search/235%20PLANTATION%20RD%20Cobb%20County,%20GA",33.8602448,-84.5655182
220,4296 MACLAREN CT,"4296 MACLAREN CT Cobb County, GA",2018-01-12,"$435,000.00",435000,6111,71.18311242022583,"https://www.google.com/maps/search/4296%20MACLAREN%20CT%20Cobb%20County,%20GA",33.8903436,-84.6789765
221,2585 LEAFMORE DR,"2585 LEAFMORE DR Cobb County, GA",2018-01-12,"$230,000.00",230000,1008,228.1746031746032,"https://www.google.com/maps/search/2585%20LEAFMORE%20DR%20Cobb%20County,%20GA",33.8903119,-84.5438021
222,2207 CUMBERLAND CT,"2207 CUMBERLAND CT Cobb County, GA",2018-01-12,"$165,000.00",165000,1527,108.05500982318271,"https://www.google.com/maps/search/2207%20CUMBERLAND%20CT%20Cobb%20County,%20GA",33.8743511,-84.4803252
223,2011 MACLAND SQUARE DR BLDG 10,"2011 MACLAND SQUARE DR BLDG 10 Cobb County, GA",2018-01-12,"$235,000.00",235000,1708,137.5878220140515,"https://www.google.com/maps/search/2011%20MACLAND%20SQUARE%20DR%20BLDG%2010%20Cobb%20County,%20GA",33.9040029,-84.6082586
224,1211 BICKHAM WAY,"1211 BICKHAM WAY Cobb County, GA",2018-01-12,"$354,000.00",354000,2935,120.61328790459966,"https://www.google.com/maps/search/1211%20BICKHAM%20WAY%20Cobb%20County,%20GA",33.8803179,-84.4849947
225,182 COVERED BRIDGE TRL,"182 COVERED BRIDGE TRL Cobb County, GA",2018-01-12,"$644,894.00",644894,3900,165.3574358974359,"https://www.google.com/maps/search/182%20COVERED%20BRIDGE%20TRL%20Cobb%20County,%20GA",33.8461025,-84.5602789
226,6225 TRUMBUL OAKS CT UNIT 13,"6225 TRUMBUL OAKS CT UNIT 13 Cobb County, GA",2018-01-12,"$289,000.00",289000,2016,143.3531746031746,"https://www.google.com/maps/search/6225%20TRUMBUL%20OAKS%20CT%20UNIT%2013%20Cobb%20County,%20GA",33.8002979,-84.5254696
227,1312 FALLSBROOK TER,"1312 FALLSBROOK TER Cobb County, GA",2018-01-12,"$345,000.00",345000,2999,115.0383461153718,"https://www.google.com/maps/search/1312%20FALLSBROOK%20TER%20Cobb%20County,%20GA",33.9904047,-84.7176173
228,1331 GOLDEN ROCK LN SE UNIT 2,"1331 GOLDEN ROCK LN SE UNIT 2 Cobb County, GA",2018-01-12,"$385,525.00",385525,2553,151.00861731296513,"https://www.google.com/maps/search/1331%20GOLDEN%20ROCK%20LN%20SE%20UNIT%202%20Cobb%20County,%20GA",33.9203536,-84.4651727
229,7096 SILVER MINE XING,"7096 SILVER MINE XING Cobb County, GA",2018-01-12,"$186,000.00",186000,2240,83.03571428571429,"https://www.google.com/maps/search/7096%20SILVER%20MINE%20XING%20Cobb%20County,%20GA",33.7813619,-84.5567586
230,1177 MEADOW OAKS DR,"1177 MEADOW OAKS DR Cobb County, GA",2018-01-12,"$246,000.00",246000,1806,136.21262458471762,"https://www.google.com/maps/search/1177%20MEADOW%20OAKS%20DR%20Cobb%20County,%20GA",34.0708884,-84.5834426
231,5887 WRIGHT RD SW,"5887 WRIGHT RD SW Cobb County, GA",2018-01-12,"$247,000.00",247000,1548,159.56072351421187,"https://www.google.com/maps/search/5887%20WRIGHT%20RD%20SW%20Cobb%20County,%20GA",33.9226932,-84.7231892
232,1100 SILVERBROOKE DR,"1100 SILVERBROOKE DR Cobb County, GA",2018-01-12,"$225,000.00",225000,2438,92.28876127973749,"https://www.google.com/maps/search/1100%20SILVERBROOKE%20DR%20Cobb%20County,%20GA",33.881612,-84.7172907
233,1781 BLACKWILLOW DR,"1781 BLACKWILLOW DR Cobb County, GA",2018-01-12,"$300,000.00",300000,2240,133.92857142857142,"https://www.google.com/maps/search/1781%20BLACKWILLOW%20DR%20Cobb%20County,%20GA",34.0619813,-84.4989693
234,1120 BARNES MILL RD,"1120 BARNES MILL RD Cobb County, GA",2018-01-12,"$129,900.00",129900,880,147.61363636363637,"https://www.google.com/maps/search/1120%20BARNES%20MILL%20RD%20Cobb%20County,%20GA",33.9647101,-84.5189215
235,4039 HERITAGE CROSSING PT,"4039 HERITAGE CROSSING PT Cobb County, GA",2018-01-12,"$249,900.00",249900,2958,84.48275862068965,"https://www.google.com/maps/search/4039%20HERITAGE%20CROSSING%20PT%20Cobb%20County,%20GA",33.8561158,-84.7036136
236,5309 CONCORDIA PL UNIT 10,"5309 CONCORDIA PL UNIT 10 Cobb County, GA",2018-01-12,"$258,000.00",258000,1856,139.00862068965515,"https://www.google.com/maps/search/5309%20CONCORDIA%20PL%20UNIT%2010%20Cobb%20County,%20GA",33.821936,-84.4902368
237,3951 COVEY FLUSH CT UNIT 24,"3951 COVEY FLUSH CT UNIT 24 Cobb County, GA",2018-01-12,"$246,000.00",246000,1640,150.0,"https://www.google.com/maps/search/3951%20COVEY%20FLUSH%20CT%20UNIT%2024%20Cobb%20County,%20GA",33.8594447,-84.572767
238,1520 N MILFORD CREEK LN,"1520 N MILFORD CREEK LN Cobb County, GA",2018-01-12,"$226,000.00",226000,2132,106.00375234521576,"https://www.google.com/maps/search/1520%20N%20MILFORD%20CREEK%20LN%20Cobb%20County,%20GA",33.8804496,-84.5990299
239,4518 FLOWERING BR,"4518 FLOWERING BR Cobb County, GA",2018-01-12,"$239,900.00",239900,1835,130.7356948228883,"https://www.google.com/maps/search/4518%20FLOWERING%20BR%20Cobb%20County,%20GA",33.8655725,-84.6878837
240,9155 WATERFORD LN,"9155 WATERFORD LN Cobb County, GA",2018-01-12,"$210,000.00",210000,2326,90.28374892519346,"https://www.google.com/maps/search/9155%20WATERFORD%20LN%20Cobb%20County,%20GA",33.8291795,-84.6738395
241,2287 WICKINGHAM DR,"2287 WICKINGHAM DR Cobb County, GA",2018-01-12,"$385,126.00",385126,2748,140.14774381368267,"https://www.google.com/maps/search/2287%20WICKINGHAM%20DR%20Cobb%20County,%20GA",34.0460187,-84.4815107
242,2950 MOUNT WILKINSON PKWY UNIT 604,"2950 MOUNT WILKINSON PKWY UNIT 604 Cobb County, GA",2018-01-12,"$410,000.00",410000,1452,282.36914600550966,"https://www.google.com/maps/search/2950%20MOUNT%20WILKINSON%20PKWY%20UNIT%20604%20Cobb%20County,%20GA",33.8694068,-84.4676265
243,3033 BRISTLEWOOD LN,"3033 BRISTLEWOOD LN Cobb County, GA",2018-01-12,"$295,000.00",295000,2471,119.38486442735734,"https://www.google.com/maps/search/3033%20BRISTLEWOOD%20LN%20Cobb%20County,%20GA",33.9579331,-84.6373462
244,164 VINTAGE CLUB CIR UNIT 36,"164 VINTAGE CLUB CIR UNIT 36 Cobb County, GA",2018-01-12,"$285,000.00",285000,1661,171.5833835039133,"https://www.google.com/maps/search/164%20VINTAGE%20CLUB%20CIR%20UNIT%2036%20Cobb%20County,%20GA",34.017791,-84.5493999
245,6411 WANDA LN,"6411 WANDA LN Cobb County, GA",2018-01-15,"$127,000.00",127000,1050,120.95238095238096,"https://www.google.com/maps/search/6411%20WANDA%20LN%20Cobb%20County,%20GA",33.7976411,-84.6055745
246,3807 MEMORIAL PKWY,"3807 MEMORIAL PKWY Cobb County, GA",2018-01-15,"$160,000.00",160000,1374,116.44832605531296,"https://www.google.com/maps/search/3807%20MEMORIAL%20PKWY%20Cobb%20County,%20GA",34.0265454,-84.6618274
247,2181 GREYSON DR,"2181 GREYSON DR Cobb County, GA",2018-01-15,"$286,000.00",286000,2538,112.68715524034673,"https://www.google.com/maps/search/2181%20GREYSON%20DR%20Cobb%20County,%20GA",33.98926,-84.4872899
248,3165 ANN RD,"3165 ANN RD Cobb County, GA",2018-01-15,"$326,000.00",326000,1426,228.61150070126223,"https://www.google.com/maps/search/3165%20ANN%20RD%20Cobb%20County,%20GA",33.8754772,-84.4887551
249,1166 BOOTH RD 611,"1166 BOOTH RD 611 Cobb County, GA",2018-01-16,"$87,700.00",87700,1059,82.81397544853635,"https://www.google.com/maps/search/1166%20BOOTH%20RD%20611%20Cobb%20County,%20GA",33.9238119,-84.5608048
250,2525 ASHWICKE DR UNIT 17,"2525 ASHWICKE DR UNIT 17 Cobb County, GA",2018-01-16,"$315,000.00",315000,1876,167.91044776119404,"https://www.google.com/maps/search/2525%20ASHWICKE%20DR%20UNIT%2017%20Cobb%20County,%20GA",33.8331187,-84.4829924
251,2773 MATTHEWS ST,"2773 MATTHEWS ST Cobb County, GA",2018-01-16,"$450,000.00",450000,2307,195.05851755526655,"https://www.google.com/maps/search/2773%20MATTHEWS%20ST%20Cobb%20County,%20GA",error,error
252,1276 SILVERCREST CT,"1276 SILVERCREST CT Cobb County, GA",2018-01-16,"$219,081.00",219081,2208,99.22146739130434,"https://www.google.com/maps/search/1276%20SILVERCREST%20CT%20Cobb%20County,%20GA",33.8843324,-84.7239851
253,2706 VININGS CENTRAL DR BLDG 1/UNIT 1,"2706 VININGS CENTRAL DR BLDG 1/UNIT 1 Cobb County, GA",2018-01-16,"$176,000.00",176000,1438,122.39221140472878,"https://www.google.com/maps/search/2706%20VININGS%20CENTRAL%20DR%20BLDG%201/UNIT%201%20Cobb%20County,%20GA",33.8393852,-84.4769648
254,2535 OCTAVIA LN,"2535 OCTAVIA LN Cobb County, GA",2018-01-16,"$280,000.00",280000,3604,77.6914539400666,"https://www.google.com/maps/search/2535%20OCTAVIA%20LN%20Cobb%20County,%20GA",33.9804749,-84.4781905
255,2295 BURNT HICKORY RD,"2295 BURNT HICKORY RD Cobb County, GA",2018-01-16,"$200,000.00",200000,2164,92.42144177449168,"https://www.google.com/maps/search/2295%20BURNT%20HICKORY%20RD%20Cobb%20County,%20GA",33.9644997,-84.6186206
256,2062 SHILLINGWOOD DR,"2062 SHILLINGWOOD DR Cobb County, GA",2018-01-16,"$225,000.00",225000,2023,111.22095897182402,"https://www.google.com/maps/search/2062%20SHILLINGWOOD%20DR%20Cobb%20County,%20GA",34.0035408,-84.6253519
257,1709 NIAGARA CT,"1709 NIAGARA CT Cobb County, GA",2018-01-16,"$240,000.00",240000,2640,90.9090909090909,"https://www.google.com/maps/search/1709%20NIAGARA%20CT%20Cobb%20County,%20GA",34.0730276,-84.6005434
258,3186 FOXWOOD TRL,"3186 FOXWOOD TRL Cobb County, GA",2018-01-16,"$214,900.00",214900,1173,183.20545609548168,"https://www.google.com/maps/search/3186%20FOXWOOD%20TRL%20Cobb%20County,%20GA",33.8763132,-84.5533608
259,5119 LAKEVIEW CT,"5119 LAKEVIEW CT Cobb County, GA",2018-01-16,"$95,000.00",95000,2174,43.6982520699172,"https://www.google.com/maps/search/5119%20LAKEVIEW%20CT%20Cobb%20County,%20GA",33.8287189,-84.6230708
260,395 TALCOTT CIR,"395 TALCOTT CIR Cobb County, GA",2018-01-16,"$427,000.00",427000,1580,270.253164556962,"https://www.google.com/maps/search/395%20TALCOTT%20CIR%20Cobb%20County,%20GA",33.9619486,-84.5587161
261,2753 ST AUGUSTINE TRL,"2753 ST AUGUSTINE TRL Cobb County, GA",2018-01-16,"$117,500.00",117500,1166,100.77186963979416,"https://www.google.com/maps/search/2753%20ST%20AUGUSTINE%20TRL%20Cobb%20County,%20GA",33.916177,-84.478383
262,5133 STONEYWOOD CIR,"5133 STONEYWOOD CIR Cobb County, GA",2018-01-16,"$282,000.00",282000,2818,100.0709723207949,"https://www.google.com/maps/search/5133%20STONEYWOOD%20CIR%20Cobb%20County,%20GA",33.8267272,-84.5456661
263,528 VIRGINIA PL SE,"528 VIRGINIA PL SE Cobb County, GA",2018-01-16,"$126,000.00",126000,1000,126.0,"https://www.google.com/maps/search/528%20VIRGINIA%20PL%20SE%20Cobb%20County,%20GA",33.9392034,-84.4990513
264,3103 FIELDSTONE CT,"3103 FIELDSTONE CT Cobb County, GA",2018-01-16,"$252,000.00",252000,2662,94.6656649135988,"https://www.google.com/maps/search/3103%20FIELDSTONE%20CT%20Cobb%20County,%20GA",34.0195454,-84.6390426
265,804 MIMMS DR,"804 MIMMS DR Cobb County, GA",2018-01-16,"$417,500.00",417500,2470,169.02834008097167,"https://www.google.com/maps/search/804%20MIMMS%20DR%20Cobb%20County,%20GA",33.9746864,-84.6376528
266,328 ROCKMANN LN,"328 ROCKMANN LN Cobb County, GA",2018-01-16,"$400,000.00",400000,3212,124.53300124533,"https://www.google.com/maps/search/328%20ROCKMANN%20LN%20Cobb%20County,%20GA",33.9435872,-84.5823788
267,2560 ALVECOT CIR,"2560 ALVECOT CIR Cobb County, GA",2018-01-16,"$261,000.00",261000,2070,126.08695652173913,"https://www.google.com/maps/search/2560%20ALVECOT%20CIR%20Cobb%20County,%20GA",33.8278182,-84.4813904
268,1270 SILVERCREST CT,"1270 SILVERCREST CT Cobb County, GA",2018-01-16,"$230,124.00",230124,2294,100.31560592850916,"https://www.google.com/maps/search/1270%20SILVERCREST%20CT%20Cobb%20County,%20GA",33.8838769,-84.7240055
269,2222 HERITAGE TRACE DR,"2222 HERITAGE TRACE DR Cobb County, GA",2018-01-16,"$415,000.00",415000,2300,180.43478260869568,"https://www.google.com/maps/search/2222%20HERITAGE%20TRACE%20DR%20Cobb%20County,%20GA",34.0091442,-84.4070483
270,3429 BELRIDGE DR,"3429 BELRIDGE DR Cobb County, GA",2018-01-16,"$450,000.00",450000,3528,127.55102040816328,"https://www.google.com/maps/search/3429%20BELRIDGE%20DR%20Cobb%20County,%20GA",33.8694312,-84.4988133
271,4221 NEWPOND TRL,"4221 NEWPOND TRL Cobb County, GA",2018-01-16,"$234,000.00",234000,2036,114.93123772102162,"https://www.google.com/maps/search/4221%20NEWPOND%20TRL%20Cobb%20County,%20GA",34.0570625,-84.5424292
272,2880 GROVE PARK LN,"2880 GROVE PARK LN Cobb County, GA",2018-01-16,"$333,900.00",333900,1854,180.09708737864077,"https://www.google.com/maps/search/2880%20GROVE%20PARK%20LN%20Cobb%20County,%20GA",33.9329604,-84.4682289
273,1466 HICKORY BRANCH TRL,"1466 HICKORY BRANCH TRL Cobb County, GA",2018-01-16,"$386,000.00",386000,3228,119.57868649318463,"https://www.google.com/maps/search/1466%20HICKORY%20BRANCH%20TRL%20Cobb%20County,%20GA",33.9909467,-84.6737169
274,1820 KOLB FARM CIR BLDG 7,"1820 KOLB FARM CIR BLDG 7 Cobb County, GA",2018-01-16,"$175,500.00",175500,1423,123.33099086437105,"https://www.google.com/maps/search/1820%20KOLB%20FARM%20CIR%20BLDG%207%20Cobb%20County,%20GA",33.9083474,-84.5999016
275,1408 EASTBROOKE WAY,"1408 EASTBROOKE WAY Cobb County, GA",2018-01-16,"$313,000.00",313000,2861,109.4023068857043,"https://www.google.com/maps/search/1408%20EASTBROOKE%20WAY%20Cobb%20County,%20GA",33.9993069,-84.5058284
276,680 APPLEWOOD LN,"680 APPLEWOOD LN Cobb County, GA",2018-01-16,"$295,000.00",295000,1545,190.93851132686083,"https://www.google.com/maps/search/680%20APPLEWOOD%20LN%20Cobb%20County,%20GA",33.9549466,-84.5733102
277,1702 STANWOOD DR,"1702 STANWOOD DR Cobb County, GA",2018-01-16,"$147,000.00",147000,1240,118.5483870967742,"https://www.google.com/maps/search/1702%20STANWOOD%20DR%20Cobb%20County,%20GA",33.9958418,-84.602852
278,1410 GLENWOOD CT,"1410 GLENWOOD CT Cobb County, GA",2018-01-16,"$400,000.00",400000,2672,149.7005988023952,"https://www.google.com/maps/search/1410%20GLENWOOD%20CT%20Cobb%20County,%20GA",33.9175764,-84.4622428
279,2184 CHARTWELL DR,"2184 CHARTWELL DR Cobb County, GA",2018-01-16,"$243,000.00",243000,1734,140.13840830449826,"https://www.google.com/maps/search/2184%20CHARTWELL%20DR%20Cobb%20County,%20GA",34.0350436,-84.4873309
280,4525 BAKER GROVE RD,"4525 BAKER GROVE RD Cobb County, GA",2018-01-16,"$175,000.00",175000,1443,121.27512127512128,"https://www.google.com/maps/search/4525%20BAKER%20GROVE%20RD%20Cobb%20County,%20GA",34.0660782,-84.6509981
281,3872 MULKEY CIR,"3872 MULKEY CIR Cobb County, GA",2018-01-16,"$71,000.00",71000,1216,58.38815789473684,"https://www.google.com/maps/search/3872%20MULKEY%20CIR%20Cobb%20County,%20GA",33.8605892,-84.6078799
282,710 OLDE TOWNE LN,"710 OLDE TOWNE LN Cobb County, GA",2018-01-16,"$260,000.00",260000,1446,179.80636237897647,"https://www.google.com/maps/search/710%20OLDE%20TOWNE%20LN%20Cobb%20County,%20GA",33.9684284,-84.4078209
283,3310 CHIMNEY LN,"3310 CHIMNEY LN Cobb County, GA",2018-01-16,"$748,475.00",748475,4467,167.5565256324155,"https://www.google.com/maps/search/3310%20CHIMNEY%20LN%20Cobb%20County,%20GA",34.028276,-84.428719
284,3439 CLAY RD,"3439 CLAY RD Cobb County, GA",2018-01-16,"$107,000.00",107000,1512,70.76719576719577,"https://www.google.com/maps/search/3439%20CLAY%20RD%20Cobb%20County,%20GA",33.8402789,-84.6539406
285,2541 DANIELLE CT,"2541 DANIELLE CT Cobb County, GA",2018-01-16,"$223,000.00",223000,1392,160.20114942528735,"https://www.google.com/maps/search/2541%20DANIELLE%20CT%20Cobb%20County,%20GA",34.0217771,-84.4807729
286,2479 SANDSTONE PL,"2479 SANDSTONE PL Cobb County, GA",2018-01-16,"$330,000.00",330000,1854,177.9935275080906,"https://www.google.com/maps/search/2479%20SANDSTONE%20PL%20Cobb%20County,%20GA",34.0122668,-84.4861649
287,4358 SHILOH TRL SW,"4358 SHILOH TRL SW Cobb County, GA",2018-01-16,"$184,000.00",184000,1890,97.35449735449735,"https://www.google.com/maps/search/4358%20SHILOH%20TRL%20SW%20Cobb%20County,%20GA",33.9240503,-84.6784148
288,4143 LAKE MIST DR NW,"4143 LAKE MIST DR NW Cobb County, GA",2018-01-16,"$155,000.00",155000,1652,93.82566585956415,"https://www.google.com/maps/search/4143%20LAKE%20MIST%20DR%20NW%20Cobb%20County,%20GA",34.054872,-84.5819612
289,3937 LULLWATER MAIN,"3937 LULLWATER MAIN Cobb County, GA",2018-01-16,"$225,500.00",225500,2244,100.49019607843135,"https://www.google.com/maps/search/3937%20LULLWATER%20MAIN%20Cobb%20County,%20GA",34.0463148,-84.6378999
290,5580 FORKWOOD DR,"5580 FORKWOOD DR Cobb County, GA",2018-01-16,"$407,000.00",407000,3207,126.9098846273776,"https://www.google.com/maps/search/5580%20FORKWOOD%20DR%20Cobb%20County,%20GA",33.9938727,-84.7124326
291,2141 VALLEY OAKS DR,"2141 VALLEY OAKS DR Cobb County, GA",2018-01-17,"$132,000.00",132000,1196,110.36789297658864,"https://www.google.com/maps/search/2141%20VALLEY%20OAKS%20DR%20Cobb%20County,%20GA",33.8991437,-84.5304679
292,5984 DOWNINGTON PT,"5984 DOWNINGTON PT Cobb County, GA",2018-01-17,"$591,500.00",591500,5320,111.1842105263158,"https://www.google.com/maps/search/5984%20DOWNINGTON%20PT%20Cobb%20County,%20GA",33.993835,-84.72523
293,3736 AUTUMN LEAVES LN,"3736 AUTUMN LEAVES LN Cobb County, GA",2018-01-17,"$420,000.00",420000,2642,158.97047691143072,"https://www.google.com/maps/search/3736%20AUTUMN%20LEAVES%20LN%20Cobb%20County,%20GA",34.0378848,-84.5130636
294,3824 COURTYARD DR,"3824 COURTYARD DR Cobb County, GA",2018-01-17,"$535,000.00",535000,2875,186.08695652173915,"https://www.google.com/maps/search/3824%20COURTYARD%20DR%20Cobb%20County,%20GA",33.8599073,-84.4668218
295,1676 BROOKS FARM DR,"1676 BROOKS FARM DR Cobb County, GA",2018-01-17,"$461,000.00",461000,3371,136.75467220409374,"https://www.google.com/maps/search/1676%20BROOKS%20FARM%20DR%20Cobb%20County,%20GA",33.9967892,-84.7349231
296,4109 MARS BAY BLDG 25,"4109 MARS BAY BLDG 25 Cobb County, GA",2018-01-17,"$182,300.00",182300,1334,136.6566716641679,"https://www.google.com/maps/search/4109%20MARS%20BAY%20BLDG%2025%20Cobb%20County,%20GA",34.0753,-84.6783695
297,1784 MILLHOUSE RUN,"1784 MILLHOUSE RUN Cobb County, GA",2018-01-17,"$311,000.00",311000,2382,130.56255247691016,"https://www.google.com/maps/search/1784%20MILLHOUSE%20RUN%20Cobb%20County,%20GA",34.0534776,-84.4892161
298,2613 LAKEFIELD CT,"2613 LAKEFIELD CT Cobb County, GA",2018-01-17,"$390,000.00",390000,3552,109.79729729729728,"https://www.google.com/maps/search/2613%20LAKEFIELD%20CT%20Cobb%20County,%20GA",33.9258055,-84.6276979
299,2156 CUMBERLAND DR,"2156 CUMBERLAND DR Cobb County, GA",2018-01-17,"$725,000.00",725000,3678,197.1179989124524,"https://www.google.com/maps/search/2156%20CUMBERLAND%20DR%20Cobb%20County,%20GA",33.8686482,-84.4912258
300,1156 COCKRELL CT,"1156 COCKRELL CT Cobb County, GA",2018-01-17,"$435,000.00",435000,3465,125.54112554112554,"https://www.google.com/maps/search/1156%20COCKRELL%20CT%20Cobb%20County,%20GA",33.9836338,-84.6158194
301,1667 TAPPAHANNOCK TRL,"1667 TAPPAHANNOCK TRL Cobb County, GA",2018-01-17,"$355,000.00",355000,3089,114.9239235998705,"https://www.google.com/maps/search/1667%20TAPPAHANNOCK%20TRL%20Cobb%20County,%20GA",33.9898112,-84.500268
302,1409 CUSTOM CT,"1409 CUSTOM CT Cobb County, GA",2018-01-18,"$83,000.00",83000,975,85.12820512820512,"https://www.google.com/maps/search/1409%20CUSTOM%20CT%20Cobb%20County,%20GA",33.854598,-84.59633
303,1929 LAKE HEIGHTS CIR UNIT 2,"1929 LAKE HEIGHTS CIR UNIT 2 Cobb County, GA",2018-01-18,"$189,000.00",189000,1996,94.68937875751504,"https://www.google.com/maps/search/1929%20LAKE%20HEIGHTS%20CIR%20UNIT%202%20Cobb%20County,%20GA",34.0053574,-84.605524
304,4141 MANSON AVE,"4141 MANSON AVE Cobb County, GA",2018-01-18,"$308,000.00",308000,1736,177.4193548387097,"https://www.google.com/maps/search/4141%20MANSON%20AVE%20Cobb%20County,%20GA",33.8528215,-84.5430844
305,358 CONCORD WOODS DR,"358 CONCORD WOODS DR Cobb County, GA",2018-01-18,"$195,000.00",195000,1375,141.8181818181818,"https://www.google.com/maps/search/358%20CONCORD%20WOODS%20DR%20Cobb%20County,%20GA",33.8699646,-84.5434529
306,2235 SALUDA LN,"2235 SALUDA LN Cobb County, GA",2018-01-18,"$321,000.00",321000,2754,116.55773420479302,"https://www.google.com/maps/search/2235%20SALUDA%20LN%20Cobb%20County,%20GA",34.0071449,-84.7091257
307,5840 FORDS RD,"5840 FORDS RD Cobb County, GA",2018-01-18,"$144,000.00",144000,1440,100.0,"https://www.google.com/maps/search/5840%20FORDS%20RD%20Cobb%20County,%20GA",33.9840579,-84.7204747
308,2180 PAWNEE DR,"2180 PAWNEE DR Cobb County, GA",2018-01-18,"$208,000.00",208000,1323,157.21844293272864,"https://www.google.com/maps/search/2180%20PAWNEE%20DR%20Cobb%20County,%20GA",33.9466334,-84.4889462
309,1660 CLAY RD,"1660 CLAY RD Cobb County, GA",2018-01-18,"$94,000.00",94000,1541,60.99935107073329,"https://www.google.com/maps/search/1660%20CLAY%20RD%20Cobb%20County,%20GA",33.8335214,-84.6025477
310,1944 MAYES DR,"1944 MAYES DR Cobb County, GA",2018-01-18,"$130,000.00",130000,1075,120.93023255813954,"https://www.google.com/maps/search/1944%20MAYES%20DR%20Cobb%20County,%20GA",33.9404272,-84.4963058
311,629 CONCORD LAKE CIR,"629 CONCORD LAKE CIR Cobb County, GA",2018-01-18,"$380,000.00",380000,2673,142.1623643845866,"https://www.google.com/maps/search/629%20CONCORD%20LAKE%20CIR%20Cobb%20County,%20GA",33.8724152,-84.5349356
312,134 FRANCES AVE,"134 FRANCES AVE Cobb County, GA",2018-01-18,"$895,000.00",895000,3210,278.81619937694705,"https://www.google.com/maps/search/134%20FRANCES%20AVE%20Cobb%20County,%20GA",33.9649549,-84.5483806
313,2120 BAYWOOD BLVD,"2120 BAYWOOD BLVD Cobb County, GA",2018-01-18,"$323,110.00",323110,3752,86.11673773987206,"https://www.google.com/maps/search/2120%20BAYWOOD%20BLVD%20Cobb%20County,%20GA",33.8503999,-84.6331559
314,2610 DUE WEST CIR,"2610 DUE WEST CIR Cobb County, GA",2018-01-18,"$130,000.00",130000,1640,79.26829268292683,"https://www.google.com/maps/search/2610%20DUE%20WEST%20CIR%20Cobb%20County,%20GA",34.0118429,-84.6251221
315,4698 TRINITY CT,"4698 TRINITY CT Cobb County, GA",2018-01-18,"$395,000.00",395000,2436,162.15106732348113,"https://www.google.com/maps/search/4698%20TRINITY%20CT%20Cobb%20County,%20GA",33.9868451,-84.4134298
316,3910 DOE RUN DR,"3910 DOE RUN DR Cobb County, GA",2018-01-18,"$92,000.00",92000,1637,56.20036652412951,"https://www.google.com/maps/search/3910%20DOE%20RUN%20DR%20Cobb%20County,%20GA",33.8177969,-84.6680789
317,2615 BARTLESON DR,"2615 BARTLESON DR Cobb County, GA",2018-01-18,"$473,840.00",473840,3071,154.29501790947575,"https://www.google.com/maps/search/2615%20BARTLESON%20DR%20Cobb%20County,%20GA",33.9835838,-84.6281068
318,49 OLIVE CIR SW,"49 OLIVE CIR SW Cobb County, GA",2018-01-18,"$120,000.00",120000,1154,103.98613518197574,"https://www.google.com/maps/search/49%20OLIVE%20CIR%20SW%20Cobb%20County,%20GA",33.9085747,-84.5547527
319,1256 SILVERCREST CT,"1256 SILVERCREST CT Cobb County, GA",2018-01-18,"$209,798.00",209798,2160,97.1287037037037,"https://www.google.com/maps/search/1256%20SILVERCREST%20CT%20Cobb%20County,%20GA",33.8826075,-84.7232912
320,3150 WOODWALK DR UNIT 3201,"3150 WOODWALK DR UNIT 3201 Cobb County, GA",2018-01-18,"$225,000.00",225000,1593,141.24293785310735,"https://www.google.com/maps/search/3150%20WOODWALK%20DR%20UNIT%203201%20Cobb%20County,%20GA",33.9094146,-84.4604099
321,2900 PRINCE HOWARD DR,"2900 PRINCE HOWARD DR Cobb County, GA",2018-01-18,"$345,000.00",345000,1920,179.6875,"https://www.google.com/maps/search/2900%20PRINCE%20HOWARD%20DR%20Cobb%20County,%20GA",34.0104834,-84.4666608
322,2817 DOMINION LN UNIT 5,"2817 DOMINION LN UNIT 5 Cobb County, GA",2018-01-18,"$180,000.00",180000,1656,108.69565217391305,"https://www.google.com/maps/search/2817%20DOMINION%20LN%20UNIT%205%20Cobb%20County,%20GA",34.0259151,-84.6230178
323,4618 VININGS CENTRAL RUN UNIT 138,"4618 VININGS CENTRAL RUN UNIT 138 Cobb County, GA",2018-01-18,"$170,000.00",170000,1270,133.85826771653544,"https://www.google.com/maps/search/4618%20VININGS%20CENTRAL%20RUN%20UNIT%20138%20Cobb%20County,%20GA",33.8420689,-84.478741
324,2507 KERRY CT,"2507 KERRY CT Cobb County, GA",2018-01-18,"$130,000.00",130000,1236,105.1779935275081,"https://www.google.com/maps/search/2507%20KERRY%20CT%20Cobb%20County,%20GA",34.0120606,-84.5182506
325,3280 STILLHOUSE LN SE UNIT 305,"3280 STILLHOUSE LN SE UNIT 305 Cobb County, GA",2018-01-18,"$440,000.00",440000,2305,190.88937093275487,"https://www.google.com/maps/search/3280%20STILLHOUSE%20LN%20SE%20UNIT%20305%20Cobb%20County,%20GA",33.8741972,-84.4629206
326,3102 WINBORN PL,"3102 WINBORN PL Cobb County, GA",2018-01-18,"$372,500.00",372500,2603,143.10411064156742,"https://www.google.com/maps/search/3102%20WINBORN%20PL%20Cobb%20County,%20GA",33.9858783,-84.6509164
327,4607 ROCK ISLAND LN,"4607 ROCK ISLAND LN Cobb County, GA",2018-01-18,"$220,000.00",220000,2332,94.33962264150944,"https://www.google.com/maps/search/4607%20ROCK%20ISLAND%20LN%20Cobb%20County,%20GA",34.0646125,-84.5798009
328,837 NOB RIDGE DR,"837 NOB RIDGE DR Cobb County, GA",2018-01-18,"$442,500.00",442500,3119,141.8723949983969,"https://www.google.com/maps/search/837%20NOB%20RIDGE%20DR%20Cobb%20County,%20GA",33.938388,-84.6218714
329,3445 PALM CIR,"3445 PALM CIR Cobb County, GA",2018-01-18,"$247,000.00",247000,2361,104.61668784413384,"https://www.google.com/maps/search/3445%20PALM%20CIR%20Cobb%20County,%20GA",34.0376045,-84.6566787
330,2218 AUSTIN LAKE DR,"2218 AUSTIN LAKE DR Cobb County, GA",2018-01-18,"$430,000.00",430000,2540,169.29133858267716,"https://www.google.com/maps/search/2218%20AUSTIN%20LAKE%20DR%20Cobb%20County,%20GA",33.8652774,-84.533789
331,5835 HILL RD SW,"5835 HILL RD SW Cobb County, GA",2018-01-18,"$299,600.00",299600,2452,122.18597063621532,"https://www.google.com/maps/search/5835%20HILL%20RD%20SW%20Cobb%20County,%20GA",33.8365095,-84.7184541
332,904 MILFORD CHURCH RD,"904 MILFORD CHURCH RD Cobb County, GA",2018-01-18,"$175,000.00",175000,2016,86.80555555555556,"https://www.google.com/maps/search/904%20MILFORD%20CHURCH%20RD%20Cobb%20County,%20GA",33.881211,-84.5805566
333,1626 HICKORY WOODS WAY,"1626 HICKORY WOODS WAY Cobb County, GA",2018-01-18,"$589,900.00",589900,3981,148.17884953529264,"https://www.google.com/maps/search/1626%20HICKORY%20WOODS%20WAY%20Cobb%20County,%20GA",34.0334165,-84.5023703
334,2765 WYNDCLIFF WAY,"2765 WYNDCLIFF WAY Cobb County, GA",2018-01-18,"$311,000.00",311000,2752,113.00872093023256,"https://www.google.com/maps/search/2765%20WYNDCLIFF%20WAY%20Cobb%20County,%20GA",34.0205536,-84.5399724
335,4223 WEAVERS WHITE LN UNIT 18,"4223 WEAVERS WHITE LN UNIT 18 Cobb County, GA",2018-01-18,"$183,500.00",183500,1978,92.77047522750252,"https://www.google.com/maps/search/4223%20WEAVERS%20WHITE%20LN%20UNIT%2018%20Cobb%20County,%20GA",33.8502271,-84.6093475
336,131 WORTHINGTON DR NE,"131 WORTHINGTON DR NE Cobb County, GA",2018-01-18,"$120,000.00",120000,1392,86.20689655172414,"https://www.google.com/maps/search/131%20WORTHINGTON%20DR%20NE%20Cobb%20County,%20GA",33.9535104,-84.4950994
337,2373 TUXEDO DR,"2373 TUXEDO DR Cobb County, GA",2018-01-18,"$230,000.00",230000,1599,143.8398999374609,"https://www.google.com/maps/search/2373%20TUXEDO%20DR%20Cobb%20County,%20GA",33.9334392,-84.4837651
338,445 CRIMSON MAPLE WAY,"445 CRIMSON MAPLE WAY Cobb County, GA",2018-01-18,"$473,144.00",473144,3322,142.42745334136063,"https://www.google.com/maps/search/445%20CRIMSON%20MAPLE%20WAY%20Cobb%20County,%20GA",33.8913369,-84.543719
339,3478 SERENADE COMM,"3478 SERENADE COMM Cobb County, GA",2018-01-18,"$359,000.00",359000,2280,157.4561403508772,"https://www.google.com/maps/search/3478%20SERENADE%20COMM%20Cobb%20County,%20GA",33.998665,-84.6519585
340,3132 MARS HILL RD,"3132 MARS HILL RD Cobb County, GA",2018-01-18,"$130,000.00",130000,1558,83.4403080872914,"https://www.google.com/maps/search/3132%20MARS%20HILL%20RD%20Cobb%20County,%20GA",34.0331102,-84.6932414
341,5344 VININGS LAKE VW,"5344 VININGS LAKE VW Cobb County, GA",2018-01-18,"$293,000.00",293000,2388,122.69681742043552,"https://www.google.com/maps/search/5344%20VININGS%20LAKE%20VW%20Cobb%20County,%20GA",33.8210813,-84.5539339
342,1651 MASSACHUSETTS AVE UNIT 8,"1651 MASSACHUSETTS AVE UNIT 8 Cobb County, GA",2018-01-18,"$74,000.00",74000,1440,51.388888888888886,"https://www.google.com/maps/search/1651%20MASSACHUSETTS%20AVE%20UNIT%208%20Cobb%20County,%20GA",33.9130525,-84.5701959
343,1274 SILVERCREST CT,"1274 SILVERCREST CT Cobb County, GA",2018-01-18,"$204,173.00",204173,1990,102.5994974874372,"https://www.google.com/maps/search/1274%20SILVERCREST%20CT%20Cobb%20County,%20GA",33.884202,-84.7239851
344,2757 BOB BETTIS RD,"2757 BOB BETTIS RD Cobb County, GA",2018-01-18,"$285,000.00",285000,1750,162.85714285714286,"https://www.google.com/maps/search/2757%20BOB%20BETTIS%20RD%20Cobb%20County,%20GA",34.0175426,-84.5030054
345,5071 FURLONG WAY,"5071 FURLONG WAY Cobb County, GA",2018-01-19,"$150,000.00",150000,1094,137.11151736745887,"https://www.google.com/maps/search/5071%20FURLONG%20WAY%20Cobb%20County,%20GA",33.8496316,-84.6923429
346,2144 IMPERIAL POND SW,"2144 IMPERIAL POND SW Cobb County, GA",2018-01-19,"$389,000.00",389000,2633,147.74022028104824,"https://www.google.com/maps/search/2144%20IMPERIAL%20POND%20SW%20Cobb%20County,%20GA",33.908935,-84.6916487
347,3036 DONAMIRE CT,"3036 DONAMIRE CT Cobb County, GA",2018-01-19,"$230,000.00",230000,2416,95.19867549668874,"https://www.google.com/maps/search/3036%20DONAMIRE%20CT%20Cobb%20County,%20GA",34.0394233,-84.6406164
348,3551 TEN OAKS CIR,"3551 TEN OAKS CIR Cobb County, GA",2018-01-19,"$117,000.00",117000,1352,86.53846153846153,"https://www.google.com/maps/search/3551%20TEN%20OAKS%20CIR%20Cobb%20County,%20GA",33.8693309,-84.6501398
349,4533 MADISON RIDGE PL,"4533 MADISON RIDGE PL Cobb County, GA",2018-01-19,"$345,900.00",345900,2739,126.2869660460022,"https://www.google.com/maps/search/4533%20MADISON%20RIDGE%20PL%20Cobb%20County,%20GA",33.9593827,-84.6818461
350,2150 RIVER HEIGHTS CT,"2150 RIVER HEIGHTS CT Cobb County, GA",2018-01-19,"$151,000.00",151000,1017,148.47590953785644,"https://www.google.com/maps/search/2150%20RIVER%20HEIGHTS%20CT%20Cobb%20County,%20GA",33.9289549,-84.4332591
351,2016 DEL LAGO CIR UNIT 7,"2016 DEL LAGO CIR UNIT 7 Cobb County, GA",2018-01-19,"$145,000.00",145000,1274,113.81475667189952,"https://www.google.com/maps/search/2016%20DEL%20LAGO%20CIR%20UNIT%207%20Cobb%20County,%20GA",34.0000596,-84.6090793
352,2237 ASQUITH AVE SW,"2237 ASQUITH AVE SW Cobb County, GA",2018-01-19,"$156,000.00",156000,1500,104.0,"https://www.google.com/maps/search/2237%20ASQUITH%20AVE%20SW%20Cobb%20County,%20GA",33.8639152,-84.6205425
353,1304 TIGERWOOD BND SE UNIT 4,"1304 TIGERWOOD BND SE UNIT 4 Cobb County, GA",2018-01-19,"$385,000.00",385000,2507,153.57000398883127,"https://www.google.com/maps/search/1304%20TIGERWOOD%20BND%20SE%20UNIT%204%20Cobb%20County,%20GA",33.9209936,-84.4653743
354,2297 HOLDEN WAY,"2297 HOLDEN WAY Cobb County, GA",2018-01-19,"$211,900.00",211900,1756,120.67198177676538,"https://www.google.com/maps/search/2297%20HOLDEN%20WAY%20Cobb%20County,%20GA",34.0506611,-84.6202358
355,4526 HIGHLAND PLAINS CT,"4526 HIGHLAND PLAINS CT Cobb County, GA",2018-01-19,"$685,183.00",685183,3750,182.71546666666663,"https://www.google.com/maps/search/4526%20HIGHLAND%20PLAINS%20CT%20Cobb%20County,%20GA",34.0614852,-84.4435018
356,4179 WOODCREST DR SW,"4179 WOODCREST DR SW Cobb County, GA",2018-01-19,"$164,900.00",164900,1204,136.96013289036546,"https://www.google.com/maps/search/4179%20WOODCREST%20DR%20SW%20Cobb%20County,%20GA",33.8535344,-84.6880546
357,734 MONTICELLO WAY SE,"734 MONTICELLO WAY SE Cobb County, GA",2018-01-19,"$270,000.00",270000,1692,159.5744680851064,"https://www.google.com/maps/search/734%20MONTICELLO%20WAY%20SE%20Cobb%20County,%20GA",33.9338193,-84.4636574
358,2582 OLD ROSWELL RD,"2582 OLD ROSWELL RD Cobb County, GA",2018-01-19,"$152,000.00",152000,1360,111.76470588235294,"https://www.google.com/maps/search/2582%20OLD%20ROSWELL%20RD%20Cobb%20County,%20GA",33.8902449,-84.5100907
359,4030 HAWTHORNE CIR,"4030 HAWTHORNE CIR Cobb County, GA",2018-01-19,"$400,000.00",400000,4470,89.48545861297539,"https://www.google.com/maps/search/4030%20HAWTHORNE%20CIR%20Cobb%20County,%20GA",33.8940547,-84.5087748
360,4420 GROVE DR,"4420 GROVE DR Cobb County, GA",2018-01-19,"$180,000.00",180000,1267,142.0678768745067,"https://www.google.com/maps/search/4420%20GROVE%20DR%20Cobb%20County,%20GA",34.0647418,-84.6471971
361,2248 PIKEWOOD LN,"2248 PIKEWOOD LN Cobb County, GA",2018-01-19,"$268,830.00",268830,2490,107.96385542168674,"https://www.google.com/maps/search/2248%20PIKEWOOD%20LN%20Cobb%20County,%20GA",33.8513529,-84.6330742
362,2656 LAUREL LN,"2656 LAUREL LN Cobb County, GA",2018-01-19,"$145,000.00",145000,943,153.76458112407212,"https://www.google.com/maps/search/2656%20LAUREL%20LN%20Cobb%20County,%20GA",34.0201656,-84.6268802
363,292 HAMILTON TRCE,"292 HAMILTON TRCE Cobb County, GA",2018-01-19,"$125,000.00",125000,1220,102.45901639344262,"https://www.google.com/maps/search/292%20HAMILTON%20TRCE%20Cobb%20County,%20GA",33.9556712,-84.5005849
364,7145 WEATHERFORD DR,"7145 WEATHERFORD DR Cobb County, GA",2018-01-19,"$204,000.00",204000,2261,90.22556390977444,"https://www.google.com/maps/search/7145%20WEATHERFORD%20DR%20Cobb%20County,%20GA",33.8299234,-84.6759638
365,120 CHASTAIN RD UNIT 2302,"120 CHASTAIN RD UNIT 2302 Cobb County, GA",2018-01-19,"$365,000.00",365000,2430,150.20576131687244,"https://www.google.com/maps/search/120%20CHASTAIN%20RD%20UNIT%202302%20Cobb%20County,%20GA",34.0366975,-84.5555446
366,1678 FERNSTONE DR,"1678 FERNSTONE DR Cobb County, GA",2018-01-19,"$454,000.00",454000,3477,130.57233247052056,"https://www.google.com/maps/search/1678%20FERNSTONE%20DR%20Cobb%20County,%20GA",33.9917223,-84.7387795
367,1051 FROG LEAP TRL,"1051 FROG LEAP TRL Cobb County, GA",2018-01-19,"$285,000.00",285000,2664,106.981981981982,"https://www.google.com/maps/search/1051%20FROG%20LEAP%20TRL%20Cobb%20County,%20GA",33.9773381,-84.6052573
368,5400 VININGS LAKE VW,"5400 VININGS LAKE VW Cobb County, GA",2018-01-19,"$290,000.00",290000,2160,134.25925925925927,"https://www.google.com/maps/search/5400%20VININGS%20LAKE%20VW%20Cobb%20County,%20GA",33.8173157,-84.5504883
369,2721 SAINT CHARLES LN,"2721 SAINT CHARLES LN Cobb County, GA",2018-01-19,"$144,000.00",144000,1044,137.93103448275863,"https://www.google.com/maps/search/2721%20SAINT%20CHARLES%20LN%20Cobb%20County,%20GA",34.0251544,-84.6268393
370,1172 FAWN MEADOW DR,"1172 FAWN MEADOW DR Cobb County, GA",2018-01-19,"$366,000.00",366000,2533,144.49269640742202,"https://www.google.com/maps/search/1172%20FAWN%20MEADOW%20DR%20Cobb%20County,%20GA",33.923681,-84.711759
371,1307 SHILOH TER,"1307 SHILOH TER Cobb County, GA",2018-01-19,"$104,000.00",104000,1387,74.98197548666187,"https://www.google.com/maps/search/1307%20SHILOH%20TER%20Cobb%20County,%20GA",34.042657,-84.6033992
372,3539 GREENWAY DR,"3539 GREENWAY DR Cobb County, GA",2018-01-19,"$155,000.00",155000,1215,127.57201646090536,"https://www.google.com/maps/search/3539%20GREENWAY%20DR%20Cobb%20County,%20GA",33.8670627,-84.5980482
373,911 NOLANBY BAY NW,"911 NOLANBY BAY NW Cobb County, GA",2018-01-19,"$356,706.00",356706,2288,155.90297202797203,"https://www.google.com/maps/search/911%20NOLANBY%20BAY%20NW%20Cobb%20County,%20GA",34.0582501,-84.5778171
374,4619 WEHUNT COMMONS DR UNIT 7,"4619 WEHUNT COMMONS DR UNIT 7 Cobb County, GA",2018-01-19,"$315,000.00",315000,1872,168.26923076923077,"https://www.google.com/maps/search/4619%20WEHUNT%20COMMONS%20DR%20UNIT%207%20Cobb%20County,%20GA",33.8420825,-84.5084429
375,2518 OAKWOOD WAY,"2518 OAKWOOD WAY Cobb County, GA",2018-01-19,"$288,000.00",288000,2192,131.38686131386862,"https://www.google.com/maps/search/2518%20OAKWOOD%20WAY%20Cobb%20County,%20GA",33.8777724,-84.4947334
376,3141 BLUE HERON PASS,"3141 BLUE HERON PASS Cobb County, GA",2018-01-19,"$182,000.00",182000,1822,99.89023051591656,"https://www.google.com/maps/search/3141%20BLUE%20HERON%20PASS%20Cobb%20County,%20GA",33.8631304,-84.6505077
377,2936 STEADMAN VLY,"2936 STEADMAN VLY Cobb County, GA",2018-01-19,"$250,000.00",250000,2346,106.56436487638534,"https://www.google.com/maps/search/2936%20STEADMAN%20VLY%20Cobb%20County,%20GA",33.9313581,-84.6444995
378,5313 MOON RD,"5313 MOON RD Cobb County, GA",2018-01-19,"$155,000.00",155000,1496,103.6096256684492,"https://www.google.com/maps/search/5313%20MOON%20RD%20Cobb%20County,%20GA",33.8883886,-84.7080641
379,4318 NESBIN DR,"4318 NESBIN DR Cobb County, GA",2018-01-19,"$275,000.00",275000,2341,117.47116616830414,"https://www.google.com/maps/search/4318%20NESBIN%20DR%20Cobb%20County,%20GA",34.0587059,-84.5408528
380,147 WILLOW GLENN DR,"147 WILLOW GLENN DR Cobb County, GA",2018-01-19,"$345,000.00",345000,1454,237.2764786795048,"https://www.google.com/maps/search/147%20WILLOW%20GLENN%20DR%20Cobb%20County,%20GA",33.9550407,-84.4812648
381,206 TENNIS COURT LN,"206 TENNIS COURT LN Cobb County, GA",2018-01-19,"$265,000.00",265000,2346,112.95822676896846,"https://www.google.com/maps/search/206%20TENNIS%20COURT%20LN%20Cobb%20County,%20GA",34.0343954,-84.6607242
382,735 TWIN BROOKS CT,"735 TWIN BROOKS CT Cobb County, GA",2018-01-19,"$125,000.00",125000,1280,97.65625,"https://www.google.com/maps/search/735%20TWIN%20BROOKS%20CT%20Cobb%20County,%20GA",33.9371453,-84.5008645
383,2892 TIMBERLINE RD,"2892 TIMBERLINE RD Cobb County, GA",2018-01-19,"$292,000.00",292000,1557,187.54014129736677,"https://www.google.com/maps/search/2892%20TIMBERLINE%20RD%20Cobb%20County,%20GA",34.020417,-84.4726975
384,6040 SAND WEDGE CIR,"6040 SAND WEDGE CIR Cobb County, GA",2018-01-19,"$100,000.00",100000,928,107.75862068965516,"https://www.google.com/maps/search/6040%20SAND%20WEDGE%20CIR%20Cobb%20County,%20GA",34.0420126,-84.5986186
385,1851 HEIRLOOM CT,"1851 HEIRLOOM CT Cobb County, GA",2018-01-19,"$380,000.00",380000,2919,130.1815690304899,"https://www.google.com/maps/search/1851%20HEIRLOOM%20CT%20Cobb%20County,%20GA",33.996201,-84.51249
386,2440 CAJUN DR,"2440 CAJUN DR Cobb County, GA",2018-01-19,"$221,900.00",221900,1624,136.63793103448276,"https://www.google.com/maps/search/2440%20CAJUN%20DR%20Cobb%20County,%20GA",34.010922,-84.5375769
387,3769 TOWN SQUARE CIR UNIT 5,"3769 TOWN SQUARE CIR UNIT 5 Cobb County, GA",2018-01-19,"$140,000.00",140000,1602,87.39076154806492,"https://www.google.com/maps/search/3769%20TOWN%20SQUARE%20CIR%20UNIT%205%20Cobb%20County,%20GA",34.0384133,-84.6594674
388,2503 OAK QUARTERS,"2503 OAK QUARTERS Cobb County, GA",2018-01-19,"$265,000.00",265000,2212,119.80108499095842,"https://www.google.com/maps/search/2503%20OAK%20QUARTERS%20Cobb%20County,%20GA",33.8772282,-84.4929229
389,63 GUINN ST,"63 GUINN ST Cobb County, GA",2018-01-19,"$125,000.00",125000,868,144.00921658986175,"https://www.google.com/maps/search/63%20GUINN%20ST%20Cobb%20County,%20GA",33.9112711,-84.5548139
390,2100 SHADOW WOODS PL,"2100 SHADOW WOODS PL Cobb County, GA",2018-01-19,"$310,000.00",310000,2473,125.3538212697129,"https://www.google.com/maps/search/2100%20SHADOW%20WOODS%20PL%20Cobb%20County,%20GA",34.0013059,-84.4761819
391,3109 SHIRLEY DR,"3109 SHIRLEY DR Cobb County, GA",2018-01-19,"$79,000.00",79000,1152,68.57638888888889,"https://www.google.com/maps/search/3109%20SHIRLEY%20DR%20Cobb%20County,%20GA",34.0293236,-84.6139996
392,5090 SAND WEDGE CIR,"5090 SAND WEDGE CIR Cobb County, GA",2018-01-19,"$115,000.00",115000,1320,87.12121212121212,"https://www.google.com/maps/search/5090%20SAND%20WEDGE%20CIR%20Cobb%20County,%20GA",34.0420928,-84.5990624
393,178 ALDAY LN,"178 ALDAY LN Cobb County, GA",2018-01-19,"$304,200.00",304200,2088,145.68965517241378,"https://www.google.com/maps/search/178%20ALDAY%20LN%20Cobb%20County,%20GA",33.9705689,-84.546918
394,173 MARIETTA WALK TRCE,"173 MARIETTA WALK TRCE Cobb County, GA",2018-01-19,"$320,000.00",320000,1900,168.42105263157896,"https://www.google.com/maps/search/173%20MARIETTA%20WALK%20TRCE%20Cobb%20County,%20GA",33.9457078,-84.5527858
395,1903 WILKENSON XING,"1903 WILKENSON XING Cobb County, GA",2018-01-19,"$335,000.00",335000,2802,119.55745895788722,"https://www.google.com/maps/search/1903%20WILKENSON%20XING%20Cobb%20County,%20GA",33.9984019,-84.5126385
396,3622 SILVER SPRINGS WAY,"3622 SILVER SPRINGS WAY Cobb County, GA",2018-01-19,"$239,000.00",239000,1941,123.13240597630087,"https://www.google.com/maps/search/3622%20SILVER%20SPRINGS%20WAY%20Cobb%20County,%20GA",33.8641525,-84.6913987
397,5007 HELGA CT,"5007 HELGA CT Cobb County, GA",2018-01-19,"$239,900.00",239900,2204,108.8475499092559,"https://www.google.com/maps/search/5007%20HELGA%20CT%20Cobb%20County,%20GA",34.0711801,-84.530697
398,708 BRAIDWOOD RDG,"708 BRAIDWOOD RDG Cobb County, GA",2018-01-19,"$280,000.00",280000,2968,94.33962264150944,"https://www.google.com/maps/search/708%20BRAIDWOOD%20RDG%20Cobb%20County,%20GA",33.9749722,-84.736984
399,141 EASON WAY,"141 EASON WAY Cobb County, GA",2018-01-19,"$255,000.00",255000,2240,113.83928571428572,"https://www.google.com/maps/search/141%20EASON%20WAY%20Cobb%20County,%20GA",33.8341157,-84.5546546
400,3369 HEATHERWOOD LN,"3369 HEATHERWOOD LN Cobb County, GA",2018-01-19,"$123,000.00",123000,1260,97.61904761904762,"https://www.google.com/maps/search/3369%20HEATHERWOOD%20LN%20Cobb%20County,%20GA",33.8731258,-84.6144494
401,1136 READING DR,"1136 READING DR Cobb County, GA",2018-01-19,"$199,000.00",199000,1534,129.72620599739244,"https://www.google.com/maps/search/1136%20READING%20DR%20Cobb%20County,%20GA",34.0671247,-84.578737
402,1208 FAIRFIELD DR NE,"1208 FAIRFIELD DR NE Cobb County, GA",2018-01-19,"$369,000.00",369000,1725,213.91304347826087,"https://www.google.com/maps/search/1208%20FAIRFIELD%20DR%20NE%20Cobb%20County,%20GA",33.9759232,-84.43631
403,3333 SULKY CIR,"3333 SULKY CIR Cobb County, GA",2018-01-19,"$585,000.00",585000,4010,145.8852867830424,"https://www.google.com/maps/search/3333%20SULKY%20CIR%20Cobb%20County,%20GA",33.9396142,-84.4553745
404,4639 WEHUNT COMMONS DR UNIT 6,"4639 WEHUNT COMMONS DR UNIT 6 Cobb County, GA",2018-01-19,"$308,500.00",308500,1872,164.79700854700857,"https://www.google.com/maps/search/4639%20WEHUNT%20COMMONS%20DR%20UNIT%206%20Cobb%20County,%20GA",33.8420626,-84.5078512
405,1980 TROPHY DR,"1980 TROPHY DR Cobb County, GA",2018-01-19,"$263,900.00",263900,1528,172.70942408376965,"https://www.google.com/maps/search/1980%20TROPHY%20DR%20Cobb%20County,%20GA",34.0020362,-84.4924947
406,3882 STONE HEARTH PL,"3882 STONE HEARTH PL Cobb County, GA",2018-01-19,"$249,900.00",249900,1740,143.6206896551724,"https://www.google.com/maps/search/3882%20STONE%20HEARTH%20PL%20Cobb%20County,%20GA",34.0442785,-84.4774708
407,3569 SUTTERS POND TRL,"3569 SUTTERS POND TRL Cobb County, GA",2018-01-20,"$512,000.00",512000,3625,141.24137931034485,"https://www.google.com/maps/search/3569%20SUTTERS%20POND%20TRL%20Cobb%20County,%20GA",33.9885391,-84.6572099
408,295 MASONS ROW,"295 MASONS ROW Cobb County, GA",2018-01-21,"$407,180.00",407180,2271,179.29546455306033,"https://www.google.com/maps/search/295%20MASONS%20ROW%20Cobb%20County,%20GA",33.9495778,-84.5462217
409,2408 OWENS LANDING WAY,"2408 OWENS LANDING WAY Cobb County, GA",2018-01-22,"$279,900.00",279900,2397,116.7709637046308,"https://www.google.com/maps/search/2408%20OWENS%20LANDING%20WAY%20Cobb%20County,%20GA",34.0145818,-84.6586606
410,604 COUNTRYSIDE LN,"604 COUNTRYSIDE LN Cobb County, GA",2018-01-22,"$138,500.00",138500,1097,126.25341841385595,"https://www.google.com/maps/search/604%20COUNTRYSIDE%20LN%20Cobb%20County,%20GA",33.8819521,-84.4907511
411,1460 DOLCETTO TRCE UNIT 17,"1460 DOLCETTO TRCE UNIT 17 Cobb County, GA",2018-01-22,"$189,900.00",189900,1992,95.3313253012048,"https://www.google.com/maps/search/1460%20DOLCETTO%20TRCE%20UNIT%2017%20Cobb%20County,%20GA",33.9995094,-84.595311
412,1308 GOLDEN ROCK LN SE UNIT 4,"1308 GOLDEN ROCK LN SE UNIT 4 Cobb County, GA",2018-01-22,"$367,000.00",367000,2687,136.5835504279866,"https://www.google.com/maps/search/1308%20GOLDEN%20ROCK%20LN%20SE%20UNIT%204%20Cobb%20County,%20GA",33.9209046,-84.4653648
413,1516 DICKENS PL,"1516 DICKENS PL Cobb County, GA",2018-01-22,"$200,000.00",200000,1987,100.65425264217411,"https://www.google.com/maps/search/1516%20DICKENS%20PL%20Cobb%20County,%20GA",34.060035,-84.5989768
414,1356 VELVET CREEK GLN,"1356 VELVET CREEK GLN Cobb County, GA",2018-01-22,"$210,000.00",210000,1866,112.54019292604502,"https://www.google.com/maps/search/1356%20VELVET%20CREEK%20GLN%20Cobb%20County,%20GA",33.869985,-84.5962891
415,3884 ROCK MILL PKWY,"3884 ROCK MILL PKWY Cobb County, GA",2018-01-22,"$340,000.00",340000,1529,222.3675604970569,"https://www.google.com/maps/search/3884%20ROCK%20MILL%20PKWY%20Cobb%20County,%20GA",34.0384934,-84.4357494
416,2144 PALMYRA DR,"2144 PALMYRA DR Cobb County, GA",2018-01-22,"$143,500.00",143500,1426,100.6311360448808,"https://www.google.com/maps/search/2144%20PALMYRA%20DR%20Cobb%20County,%20GA",33.9314998,-84.4801675
417,4537 SILVER SPRINGS BLVD,"4537 SILVER SPRINGS BLVD Cobb County, GA",2018-01-22,"$251,551.00",251551,2225,113.05662921348316,"https://www.google.com/maps/search/4537%20SILVER%20SPRINGS%20BLVD%20Cobb%20County,%20GA",33.86618,-84.6899991
418,3350 STETSON OVRLK,"3350 STETSON OVRLK Cobb County, GA",2018-01-22,"$599,900.00",599900,4417,135.8161648177496,"https://www.google.com/maps/search/3350%20STETSON%20OVRLK%20Cobb%20County,%20GA",33.8714036,-84.4805116
419,2708 VINTAGE RESERVE LN UNIT 22,"2708 VINTAGE RESERVE LN UNIT 22 Cobb County, GA",2018-01-22,"$282,500.00",282500,1718,164.43538998835857,"https://www.google.com/maps/search/2708%20VINTAGE%20RESERVE%20LN%20UNIT%2022%20Cobb%20County,%20GA",34.0201009,-84.549693
420,1262 SILVERCREST CT,"1262 SILVERCREST CT Cobb County, GA",2018-01-22,"$235,508.00",235508,2394,98.37426900584796,"https://www.google.com/maps/search/1262%20SILVERCREST%20CT%20Cobb%20County,%20GA",33.8825814,-84.7229526
421,1533 CLOVERDALE DR,"1533 CLOVERDALE DR Cobb County, GA",2018-01-22,"$142,000.00",142000,1087,130.63477460901564,"https://www.google.com/maps/search/1533%20CLOVERDALE%20DR%20Cobb%20County,%20GA",33.949852,-84.5070412
422,1192 BROWNSTONE DR UNIT 9,"1192 BROWNSTONE DR UNIT 9 Cobb County, GA",2018-01-22,"$231,000.00",231000,2152,107.34200743494424,"https://www.google.com/maps/search/1192%20BROWNSTONE%20DR%20UNIT%209%20Cobb%20County,%20GA",33.9280171,-84.5600861
423,3500 VININGS NORTH TRL,"3500 VININGS NORTH TRL Cobb County, GA",2018-01-22,"$285,000.00",285000,1716,166.08391608391608,"https://www.google.com/maps/search/3500%20VININGS%20NORTH%20TRL%20Cobb%20County,%20GA",33.8640576,-84.507287
424,2166 VENESA CIR,"2166 VENESA CIR Cobb County, GA",2018-01-22,"$64,250.00",64250,1248,51.4823717948718,"https://www.google.com/maps/search/2166%20VENESA%20CIR%20Cobb%20County,%20GA",33.814022,-84.6131408
425,2363 TOWNEVIEW CT UNIT 8,"2363 TOWNEVIEW CT UNIT 8 Cobb County, GA",2018-01-22,"$225,000.00",225000,1963,114.62047885888946,"https://www.google.com/maps/search/2363%20TOWNEVIEW%20CT%20UNIT%208%20Cobb%20County,%20GA",33.8233136,-84.4853392
426,2341 DARLINGTON WAY,"2341 DARLINGTON WAY Cobb County, GA",2018-01-22,"$446,132.00",446132,3719,119.96020435600968,"https://www.google.com/maps/search/2341%20DARLINGTON%20WAY%20Cobb%20County,%20GA",33.8988037,-84.6202562
427,4413 ROLLING OAKS TRL,"4413 ROLLING OAKS TRL Cobb County, GA",2018-01-22,"$275,000.00",275000,2069,132.91445142580957,"https://www.google.com/maps/search/4413%20ROLLING%20OAKS%20TRL%20Cobb%20County,%20GA",33.9873234,-84.6802939
428,3637 NATUREWALK TRL,"3637 NATUREWALK TRL Cobb County, GA",2018-01-22,"$199,900.00",199900,1577,126.75967025998732,"https://www.google.com/maps/search/3637%20NATUREWALK%20TRL%20Cobb%20County,%20GA",33.8665983,-84.585959
429,1302 BARLASTON CIR,"1302 BARLASTON CIR Cobb County, GA",2018-01-22,"$410,000.00",410000,3536,115.9502262443439,"https://www.google.com/maps/search/1302%20BARLASTON%20CIR%20Cobb%20County,%20GA",33.9823939,-84.4624273
430,3896 HIGH DOVE WAY UNIT 12,"3896 HIGH DOVE WAY UNIT 12 Cobb County, GA",2018-01-22,"$268,500.00",268500,1906,140.87093389296956,"https://www.google.com/maps/search/3896%20HIGH%20DOVE%20WAY%20UNIT%2012%20Cobb%20County,%20GA",33.8598842,-84.5742788
431,2519 PARK DR NW,"2519 PARK DR NW Cobb County, GA",2018-01-22,"$132,000.00",132000,1660,79.51807228915662,"https://www.google.com/maps/search/2519%20PARK%20DR%20NW%20Cobb%20County,%20GA",34.0243958,-84.6223825
432,3910 ARDSLEY DR,"3910 ARDSLEY DR Cobb County, GA",2018-01-22,"$264,000.00",264000,1799,146.74819344080043,"https://www.google.com/maps/search/3910%20ARDSLEY%20DR%20Cobb%20County,%20GA",33.9953539,-84.436016
433,1801 N CHESTNUT GROVE DR,"1801 N CHESTNUT GROVE DR Cobb County, GA",2018-01-22,"$309,000.00",309000,3013,102.55559243279124,"https://www.google.com/maps/search/1801%20N%20CHESTNUT%20GROVE%20DR%20Cobb%20County,%20GA",34.0304802,-84.4949125
434,2390 WYNONA DR,"2390 WYNONA DR Cobb County, GA",2018-01-22,"$120,000.00",120000,1060,113.20754716981132,"https://www.google.com/maps/search/2390%20WYNONA%20DR%20Cobb%20County,%20GA",33.8949263,-84.5467693
435,2698 S ARBOR DR,"2698 S ARBOR DR Cobb County, GA",2018-01-22,"$357,000.00",357000,2232,159.94623655913978,"https://www.google.com/maps/search/2698%20S%20ARBOR%20DR%20Cobb%20County,%20GA",34.0478295,-84.4696638
436,5519 SYLVANIA DR,"5519 SYLVANIA DR Cobb County, GA",2018-01-22,"$287,500.00",287500,2751,104.50745183569612,"https://www.google.com/maps/search/5519%20SYLVANIA%20DR%20Cobb%20County,%20GA",33.8160201,-84.5279735
437,1066 TRAVELERS TRL,"1066 TRAVELERS TRL Cobb County, GA",2018-01-22,"$105,000.00",105000,1280,82.03125,"https://www.google.com/maps/search/1066%20TRAVELERS%20TRL%20Cobb%20County,%20GA",34.031911,-84.6116877
438,51 MIDWAY RD,"51 MIDWAY RD Cobb County, GA",2018-01-22,"$291,000.00",291000,2792,104.22636103151862,"https://www.google.com/maps/search/51%20MIDWAY%20RD%20Cobb%20County,%20GA",33.9621785,-84.6721645
439,3144 RAMBLEWOOD CT SW,"3144 RAMBLEWOOD CT SW Cobb County, GA",2018-01-22,"$168,500.00",168500,1366,123.3528550512445,"https://www.google.com/maps/search/3144%20RAMBLEWOOD%20CT%20SW%20Cobb%20County,%20GA",33.875052,-84.6950791
440,1505 ROCKCREST WAY,"1505 ROCKCREST WAY Cobb County, GA",2018-01-22,"$290,000.00",290000,2207,131.40009062075214,"https://www.google.com/maps/search/1505%20ROCKCREST%20WAY%20Cobb%20County,%20GA",33.9735181,-84.5066071
441,1002 HAMPTON CT NW,"1002 HAMPTON CT NW Cobb County, GA",2018-01-22,"$165,000.00",165000,1388,118.87608069164266,"https://www.google.com/maps/search/1002%20HAMPTON%20CT%20NW%20Cobb%20County,%20GA",34.028249,-84.6221781
442,344 MCCOOK CIR,"344 MCCOOK CIR Cobb County, GA",2018-01-22,"$290,000.00",290000,2578,112.49030256012412,"https://www.google.com/maps/search/344%20MCCOOK%20CIR%20Cobb%20County,%20GA",33.9964681,-84.5658863
443,6062 KENBROOK KNL,"6062 KENBROOK KNL Cobb County, GA",2018-01-23,"$397,900.00",397900,2945,135.11035653650254,"https://www.google.com/maps/search/6062%20KENBROOK%20KNL%20Cobb%20County,%20GA",error,error
444,1915 SHENANDOAH VALLEY LN,"1915 SHENANDOAH VALLEY LN Cobb County, GA",2018-01-23,"$121,000.00",121000,1152,105.03472222222224,"https://www.google.com/maps/search/1915%20SHENANDOAH%20VALLEY%20LN%20Cobb%20County,%20GA",33.8846936,-84.4983554
